{"meta":{"source":"국토교통부 실거래가 공개시스템 (rt.molit.go.kr)","period":"2025-06 ~ 2026-06 (계약일 기준)","note":"거래 실데이터. 좌표는 도로명주소 지오코딩(AWS Location/Esri).","complexes":829,"sizeBands":1590,"bandsWithSale":1466,"bandsWithJeonse":890},"complexes":[{"name":"부산신항8단지부영아파트","gu":"진해구","dong":"용원동","built":2017,"lat":35.089897,"lng":128.814391,"dealCount":763,"geoSrc":"esri","sizes":[{"pyeong":18.1,"area_m2":59.93,"n":89,"jeonse":1.29},{"pyeong":25.7,"area_m2":84.99,"n":674,"jeonse":1.4}]},{"name":"진해석동푸르지오","gu":"진해구","dong":"석동","built":2006,"lat":35.160903,"lng":128.695977,"dealCount":38,"geoSrc":"esri","sizes":[{"pyeong":25.7,"area_m2":84.98,"n":28,"sale":2.45,"jeonse":2.4},{"pyeong":35.2,"area_m2":116.45,"n":4,"sale":4.1,"jeonse":2.9},{"pyeong":41.8,"area_m2":138.04,"n":6,"sale":3.7,"jeonse":3.0}]},{"name":"사랑으로부영4단지아파트","gu":"진해구","dong":"용원동","built":2018,"lat":35.087117,"lng":128.802923,"dealCount":458,"geoSrc":"esri","sizes":[{"pyeong":25.7,"area_m2":84.94,"n":458,"jeonse":1.43}]},{"name":"사랑으로부영3단지아파트","gu":"진해구","dong":"용원동","built":2018,"lat":35.088505,"lng":128.803789,"dealCount":372,"geoSrc":"esri","sizes":[{"pyeong":25.7,"area_m2":84.99,"n":372,"jeonse":1.43}]},{"name":"진해신항만경남아너스빌","gu":"진해구","dong":"마천동","built":2008,"lat":35.127726,"lng":128.78461,"dealCount":15,"geoSrc":"esri","sizes":[{"pyeong":25.7,"area_m2":84.82,"n":9,"sale":1.89,"jeonse":1.36}]},{"name":"사랑으로부영2단지아파트","gu":"진해구","dong":"용원동","built":2018,"lat":35.08915,"lng":128.805059,"dealCount":364,"geoSrc":"esri","sizes":[{"pyeong":18.1,"area_m2":59.93,"n":98,"jeonse":1.02},{"pyeong":25.6,"area_m2":84.63,"n":266,"jeonse":1.18}]},{"name":"부산신항13단지부영아파트","gu":"진해구","dong":"용원동","built":2017,"lat":35.09029,"lng":128.816141,"dealCount":455,"geoSrc":"esri","sizes":[{"pyeong":18.1,"area_m2":59.93,"n":62,"jeonse":1.29},{"pyeong":25.7,"area_m2":84.99,"n":393,"jeonse":1.4}]},{"name":"시티프라디움2차","gu":"진해구","dong":"남문동","built":2017,"lat":35.103281,"lng":128.751739,"dealCount":70,"geoSrc":"esri","sizes":[{"pyeong":22.4,"area_m2":74.15,"n":21,"sale":2.02,"jeonse":1.6},{"pyeong":22.5,"area_m2":74.45,"n":3,"sale":2.17},{"pyeong":25.7,"area_m2":84.99,"n":46,"sale":2.33,"jeonse":1.9}]},{"name":"풍호시영","gu":"진해구","dong":"풍호동","built":1991,"lat":35.13608,"lng":128.711758,"dealCount":60,"geoSrc":"esri","sizes":[{"pyeong":15.1,"area_m2":49.79,"n":60,"sale":1.0,"jeonse":0.7}]},{"name":"부산신항사랑으로부영5단지","gu":"진해구","dong":"용원동","built":2019,"lat":35.087254,"lng":128.80687,"dealCount":173,"geoSrc":"esri","sizes":[{"pyeong":25.7,"area_m2":84.99,"n":173,"jeonse":1.28}]},{"name":"벚꽃마을주공","gu":"진해구","dong":"자은동","built":2000,"lat":35.146809,"lng":128.709527,"dealCount":24,"geoSrc":"esri","sizes":[{"pyeong":18.1,"area_m2":59.71,"n":8,"sale":1.64,"jeonse":1.44},{"pyeong":22.9,"area_m2":75.57,"n":5,"sale":2.08},{"pyeong":25.6,"area_m2":84.58,"n":11,"sale":2.12}]},{"name":"진해장천대동다:숲","gu":"진해구","dong":"장천동","built":2007,"lat":35.12964,"lng":128.70606,"dealCount":95,"geoSrc":"esri","sizes":[{"pyeong":18.1,"area_m2":59.98,"n":20,"sale":2.12,"jeonse":1.9},{"pyeong":25.7,"area_m2":84.82,"n":65,"sale":2.68,"jeonse":2.5},{"pyeong":36.9,"area_m2":122.06,"n":2,"sale":4.0},{"pyeong":42.8,"area_m2":141.41,"n":7,"sale":4.7,"jeonse":3.1},{"pyeong":68.2,"area_m2":225.53,"n":1,"sale":5.4}]},{"name":"시티프라디움1차아파트","gu":"진해구","dong":"남문동","built":2017,"lat":35.105562,"lng":128.755669,"dealCount":176,"geoSrc":"esri","sizes":[{"pyeong":18.1,"area_m2":59.98,"n":176,"sale":1.56,"jeonse":1.3}]},{"name":"부산신항사랑으로부영6단지","gu":"진해구","dong":"용원동","built":2019,"lat":35.087658,"lng":128.808424,"dealCount":306,"geoSrc":"esri","sizes":[{"pyeong":25.7,"area_m2":84.99,"n":306,"jeonse":1.3}]},{"name":"진해자이","gu":"진해구","dong":"석동","built":2006,"lat":35.155862,"lng":128.69931,"dealCount":22,"geoSrc":"esri","sizes":[{"pyeong":25.7,"area_m2":84.94,"n":15,"sale":3.02,"jeonse":2.7},{"pyeong":37.9,"area_m2":125.32,"n":5,"sale":3.62,"jeonse":3.5},{"pyeong":47.1,"area_m2":155.73,"n":2,"sale":4.17,"jeonse":4.0}]},{"name":"부산신항만이지더원2단지","gu":"진해구","dong":"용원동","built":2014,"lat":35.086625,"lng":128.812587,"dealCount":63,"geoSrc":"esri","sizes":[{"pyeong":18.1,"area_m2":59.93,"n":16,"sale":1.81,"jeonse":1.6},{"pyeong":25.7,"area_m2":84.89,"n":47,"sale":2.6,"jeonse":1.9}]},{"name":"성원","gu":"진해구","dong":"자은동","built":1995,"lat":35.152747,"lng":128.708805,"dealCount":134,"geoSrc":"esri","sizes":[{"pyeong":12.0,"area_m2":39.75,"n":134,"sale":0.8,"jeonse":0.7}]},{"name":"STX칸","gu":"진해구","dong":"남양동","built":2009,"lat":35.11934,"lng":128.78043,"dealCount":40,"geoSrc":"esri","sizes":[{"pyeong":25.7,"area_m2":84.99,"n":40,"sale":1.5,"jeonse":1.1}]},{"name":"창원마린푸르지오1단지","gu":"진해구","dong":"풍호동","built":2015,"lat":35.133651,"lng":128.70609,"dealCount":175,"geoSrc":"esri","sizes":[{"pyeong":18.1,"area_m2":59.99,"n":12,"sale":3.2,"jeonse":2.2},{"pyeong":20.0,"area_m2":65.97,"n":5,"sale":2.8,"jeonse":2.5},{"pyeong":22.1,"area_m2":72.99,"n":33,"sale":3.54,"jeonse":2.7},{"pyeong":25.7,"area_m2":84.98,"n":106,"sale":4.08,"jeonse":3.1},{"pyeong":31.5,"area_m2":103.97,"n":18,"sale":5.4,"jeonse":4.3},{"pyeong":34.8,"area_m2":114.93,"n":1,"jeonse":4.0}]},{"name":"창원마린2차푸르지오","gu":"진해구","dong":"안골동","built":2016,"lat":35.098098,"lng":128.806712,"dealCount":42,"geoSrc":"esri","sizes":[{"pyeong":18.1,"area_m2":59.93,"n":4,"sale":2.38},{"pyeong":22.7,"area_m2":74.96,"n":11,"sale":2.79,"jeonse":2.0},{"pyeong":25.7,"area_m2":84.93,"n":27,"sale":3.2,"jeonse":2.3}]},{"name":"남문리젠시빌란트더웰","gu":"진해구","dong":"남문동","built":2024,"lat":35.10664,"lng":128.757503,"dealCount":51,"geoSrc":"esri","sizes":[{"pyeong":22.5,"area_m2":74.4,"n":21,"sale":2.3,"jeonse":1.8},{"pyeong":25.7,"area_m2":84.86,"n":30,"sale":3.2,"jeonse":2.2}]},{"name":"우림필유","gu":"진해구","dong":"석동","built":2008,"lat":35.156389,"lng":128.694712,"dealCount":101,"geoSrc":"esri","sizes":[{"pyeong":25.7,"area_m2":84.86,"n":86,"sale":4.08,"jeonse":3.0},{"pyeong":40.3,"area_m2":133.37,"n":9,"sale":4.98,"jeonse":4.1},{"pyeong":48.3,"area_m2":159.72,"n":4,"sale":5.6,"jeonse":4.1},{"pyeong":57.5,"area_m2":189.96,"n":2,"sale":6.5,"jeonse":5.2}]},{"name":"남문동일스위트TheOcean2단지","gu":"진해구","dong":"제덕동","built":2025,"lat":35.102075,"lng":128.74459,"dealCount":31,"geoSrc":"esri","sizes":[{"pyeong":18.1,"area_m2":59.73,"n":13,"jeonse":1.3},{"pyeong":19.5,"area_m2":64.37,"n":13,"jeonse":1.3},{"pyeong":22.5,"area_m2":74.32,"n":3,"jeonse":1.6},{"pyeong":22.8,"area_m2":75.33,"n":1,"jeonse":1.6},{"pyeong":25.6,"area_m2":84.65,"n":1,"jeonse":1.9}]},{"name":"창원자은에일린의뜰","gu":"진해구","dong":"자은동","built":2017,"lat":35.154926,"lng":128.721444,"dealCount":39,"geoSrc":"esri","sizes":[{"pyeong":25.7,"area_m2":84.94,"n":27,"sale":2.5,"jeonse":3.2},{"pyeong":30.7,"area_m2":101.34,"n":8,"sale":5.1,"jeonse":3.5},{"pyeong":34.7,"area_m2":114.79,"n":4,"sale":5.1,"jeonse":3.9}]},{"name":"석동주공","gu":"진해구","dong":"석동","built":1991,"lat":35.149757,"lng":128.704674,"dealCount":108,"geoSrc":"esri","sizes":[{"pyeong":9.9,"area_m2":32.76,"n":62,"sale":0.9,"jeonse":0.7},{"pyeong":12.9,"area_m2":42.48,"n":36,"sale":1.15,"jeonse":0.75},{"pyeong":14.3,"area_m2":47.31,"n":10,"sale":1.17,"jeonse":0.7}]},{"name":"진해이동디에스아이존빌","gu":"진해구","dong":"이동","built":2008,"lat":35.155848,"lng":128.693855,"dealCount":9,"geoSrc":"esri","sizes":[{"pyeong":25.7,"area_m2":84.84,"n":9,"sale":2.89,"jeonse":2.75}]},{"name":"벚꽃그린빌3단지","gu":"진해구","dong":"석동","built":2003,"lat":35.154798,"lng":128.706569,"dealCount":31,"geoSrc":"esri","sizes":[{"pyeong":20.2,"area_m2":66.66,"n":3,"sale":2.37,"jeonse":1.9},{"pyeong":25.7,"area_m2":84.97,"n":28,"sale":2.59,"jeonse":2.1}]},{"name":"청안그린빌","gu":"진해구","dong":"마천동","built":2002,"lat":35.127517,"lng":128.781957,"dealCount":7,"geoSrc":"esri","sizes":[{"pyeong":18.1,"area_m2":59.68,"n":7,"sale":0.75}]},{"name":"경화베스티움","gu":"진해구","dong":"경화동","built":2018,"lat":35.161506,"lng":128.68596,"dealCount":20,"geoSrc":"esri","sizes":[{"pyeong":25.7,"area_m2":84.96,"n":19,"sale":3.0,"jeonse":2.55}]},{"name":"자은솔라움","gu":"진해구","dong":"자은동","built":2005,"lat":35.149088,"lng":128.710453,"dealCount":6,"geoSrc":"esri","sizes":[{"pyeong":18.1,"area_m2":59.91,"n":5,"sale":1.43,"jeonse":1.3},{"pyeong":20.8,"area_m2":68.74,"n":1,"sale":1.7}]},{"name":"진해이동미소지움","gu":"진해구","dong":"이동","built":2007,"lat":35.155587,"lng":128.69849,"dealCount":9,"geoSrc":"esri","sizes":[{"pyeong":25.7,"area_m2":84.99,"n":2,"sale":2.84,"jeonse":2.25},{"pyeong":39.1,"area_m2":129.33,"n":3,"jeonse":3.1},{"pyeong":44.3,"area_m2":146.45,"n":1,"jeonse":3.1},{"pyeong":49.9,"area_m2":164.88,"n":3,"sale":4.05}]},{"name":"남성파크A","gu":"진해구","dong":"경화동","built":1994,"lat":35.159083,"lng":128.680476,"dealCount":1,"geoSrc":"esri","sizes":[{"pyeong":20.7,"area_m2":68.58,"n":1,"jeonse":0.7}]},{"name":"풍호주공","gu":"진해구","dong":"풍호동","built":1990,"lat":35.14264,"lng":128.702786,"dealCount":49,"geoSrc":"esri","sizes":[{"pyeong":11.9,"area_m2":39.3,"n":39,"sale":0.7,"jeonse":0.6},{"pyeong":14.1,"area_m2":46.68,"n":10,"sale":0.9,"jeonse":0.7}]},{"name":"경화동두산위브","gu":"진해구","dong":"경화동","built":2017,"lat":35.160465,"lng":128.685221,"dealCount":50,"geoSrc":"esri","sizes":[{"pyeong":18.1,"area_m2":59.92,"n":6,"sale":2.96},{"pyeong":22.3,"area_m2":73.86,"n":3,"sale":3.59,"jeonse":2.8},{"pyeong":22.6,"area_m2":74.72,"n":13,"sale":3.53,"jeonse":2.85},{"pyeong":25.7,"area_m2":84.94,"n":28,"sale":3.34,"jeonse":3.05}]},{"name":"남문호반베르디움","gu":"진해구","dong":"남문동","built":2018,"lat":35.103595,"lng":128.757853,"dealCount":113,"geoSrc":"esri","sizes":[{"pyeong":21.8,"area_m2":71.99,"n":62,"sale":2.25,"jeonse":1.8},{"pyeong":25.7,"area_m2":84.99,"n":51,"sale":2.64,"jeonse":2.1}]},{"name":"해인로즈빌","gu":"진해구","dong":"청안동","built":2002,"lat":35.106381,"lng":128.80624,"dealCount":94,"geoSrc":"esri","sizes":[{"pyeong":18.1,"area_m2":59.93,"n":94,"sale":0.9,"jeonse":1.04}]},{"name":"창원마린푸르지오2단지","gu":"진해구","dong":"풍호동","built":2015,"lat":35.131087,"lng":128.706539,"dealCount":19,"geoSrc":"esri","sizes":[{"pyeong":25.7,"area_m2":84.96,"n":19,"sale":3.73,"jeonse":3.0}]},{"name":"수창블루안","gu":"진해구","dong":"속천동","built":2004,"lat":35.141928,"lng":128.669754,"dealCount":4,"geoSrc":"esri","sizes":[{"pyeong":18.1,"area_m2":59.82,"n":4,"sale":1.15}]},{"name":"남명플럼빌리지","gu":"진해구","dong":"마천동","built":2004,"lat":35.124938,"lng":128.783118,"dealCount":34,"geoSrc":"esri","sizes":[{"pyeong":18.1,"area_m2":59.88,"n":30,"sale":1.02,"jeonse":0.7},{"pyeong":25.7,"area_m2":84.97,"n":4,"sale":1.5}]},{"name":"일신님","gu":"진해구","dong":"용원동","built":2005,"lat":35.102594,"lng":128.807912,"dealCount":48,"geoSrc":"esri","sizes":[{"pyeong":25.7,"area_m2":84.99,"n":29,"sale":2.3,"jeonse":1.6},{"pyeong":30.8,"area_m2":101.72,"n":16,"sale":2.85,"jeonse":1.7},{"pyeong":36.7,"area_m2":121.41,"n":3,"sale":2.8}]},{"name":"부영3차","gu":"진해구","dong":"청안동","built":2003,"lat":35.104971,"lng":128.805377,"dealCount":153,"geoSrc":"esri","sizes":[{"pyeong":15.1,"area_m2":49.84,"n":94,"sale":0.81,"jeonse":0.65},{"pyeong":18.1,"area_m2":59.84,"n":59,"sale":1.04,"jeonse":0.95}]},{"name":"풍림","gu":"진해구","dong":"청안동","built":2000,"lat":35.105449,"lng":128.806954,"dealCount":145,"geoSrc":"esri","sizes":[{"pyeong":18.1,"area_m2":59.96,"n":145,"sale":1.16,"jeonse":1.0}]},{"name":"남문동일스위트TheOcean1단지","gu":"진해구","dong":"제덕동","built":2025,"lat":35.103538,"lng":128.741826,"dealCount":181,"geoSrc":"esri","sizes":[{"pyeong":18.1,"area_m2":59.73,"n":118,"jeonse":1.3},{"pyeong":19.5,"area_m2":64.37,"n":20,"jeonse":1.3},{"pyeong":22.5,"area_m2":74.32,"n":29,"jeonse":1.6},{"pyeong":22.8,"area_m2":75.33,"n":4,"jeonse":1.6},{"pyeong":25.7,"area_m2":84.96,"n":10,"jeonse":1.9}]},{"name":"부영1차","gu":"진해구","dong":"청안동","built":2002,"lat":35.10146,"lng":128.803675,"dealCount":49,"geoSrc":"esri","sizes":[{"pyeong":25.7,"area_m2":84.95,"n":49,"sale":1.53,"jeonse":1.41}]},{"name":"평화마을","gu":"진해구","dong":"풍호동","built":2000,"lat":35.135374,"lng":128.703394,"dealCount":14,"geoSrc":"esri","sizes":[{"pyeong":18.1,"area_m2":59.91,"n":14,"sale":1.47,"jeonse":0.85}]},{"name":"코아루","gu":"진해구","dong":"용원동","built":2005,"lat":35.101393,"lng":128.807007,"dealCount":52,"geoSrc":"esri","sizes":[{"pyeong":25.6,"area_m2":84.72,"n":47,"sale":2.0,"jeonse":1.9},{"pyeong":36.4,"area_m2":120.35,"n":5,"sale":2.85,"jeonse":2.4}]},{"name":"경화주공","gu":"진해구","dong":"경화동","built":1986,"lat":35.158178,"lng":128.68897,"dealCount":41,"geoSrc":"esri","sizes":[{"pyeong":9.7,"area_m2":31.98,"n":26,"sale":0.58,"jeonse":0.5},{"pyeong":12.0,"area_m2":39.72,"n":15,"sale":0.6,"jeonse":0.4}]},{"name":"우성","gu":"진해구","dong":"풍호동","built":1994,"lat":35.139354,"lng":128.705603,"dealCount":144,"geoSrc":"esri","sizes":[{"pyeong":18.1,"area_m2":59.85,"n":68,"sale":1.04,"jeonse":1.0},{"pyeong":21.1,"area_m2":69.59,"n":8,"sale":1.63,"jeonse":1.28},{"pyeong":23.3,"area_m2":77.06,"n":12,"sale":1.51,"jeonse":1.32},{"pyeong":25.6,"area_m2":84.77,"n":51,"sale":1.44,"jeonse":1.4},{"pyeong":39.2,"area_m2":129.56,"n":5,"sale":2.0,"jeonse":2.0}]},{"name":"창원한신휴플러스오션파크","gu":"진해구","dong":"장천동","built":2016,"lat":35.128662,"lng":128.708951,"dealCount":83,"geoSrc":"esri","sizes":[{"pyeong":21.1,"area_m2":69.79,"n":43,"sale":2.63,"jeonse":2.6},{"pyeong":25.6,"area_m2":84.68,"n":40,"sale":3.17,"jeonse":3.0}]},{"name":"창원진해비전시티우방아이유쉘아파트","gu":"진해구","dong":"남양동","built":2021,"lat":35.119834,"lng":128.778554,"dealCount":90,"geoSrc":"esri","sizes":[{"pyeong":23.2,"area_m2":76.59,"n":90,"sale":1.92,"jeonse":1.6}]},{"name":"대동다:숲","gu":"진해구","dong":"경화동","built":2006,"lat":35.161055,"lng":128.680265,"dealCount":23,"geoSrc":"esri","sizes":[{"pyeong":25.7,"area_m2":85.0,"n":22,"sale":2.39,"jeonse":1.8},{"pyeong":39.4,"area_m2":130.2,"n":1,"sale":3.05}]},{"name":"뉴중앙하이츠","gu":"진해구","dong":"이동","built":2013,"lat":35.151948,"lng":128.693671,"dealCount":21,"geoSrc":"esri","sizes":[{"pyeong":10.8,"area_m2":35.58,"n":21,"sale":0.79,"jeonse":0.65}]},{"name":"샛별마을","gu":"진해구","dong":"풍호동","built":2000,"lat":35.141453,"lng":128.703691,"dealCount":8,"geoSrc":"esri","sizes":[{"pyeong":11.9,"area_m2":39.5,"n":3,"sale":0.88,"jeonse":0.58},{"pyeong":17.1,"area_m2":56.65,"n":5,"sale":0.9,"jeonse":0.8}]},{"name":"퀸스스테이","gu":"진해구","dong":"충의동","built":2022,"lat":35.145423,"lng":128.658404,"dealCount":7,"geoSrc":"esri","sizes":[{"pyeong":20.9,"area_m2":69.22,"n":4,"jeonse":1.35},{"pyeong":22.0,"area_m2":72.59,"n":3,"jeonse":1.2}]},{"name":"상지약수","gu":"진해구","dong":"석동","built":1991,"lat":35.160826,"lng":128.694246,"dealCount":5,"geoSrc":"esri","sizes":[{"pyeong":25.6,"area_m2":84.71,"n":5,"sale":1.86,"jeonse":1.3}]},{"name":"부산신항만이지더원1단지","gu":"진해구","dong":"용원동","built":2014,"lat":35.088103,"lng":128.811569,"dealCount":34,"geoSrc":"esri","sizes":[{"pyeong":18.1,"area_m2":59.93,"n":7,"sale":1.86},{"pyeong":25.7,"area_m2":84.89,"n":27,"sale":2.27,"jeonse":1.85}]},{"name":"진해유진에코블루스카이","gu":"진해구","dong":"속천동","built":2015,"lat":35.143227,"lng":128.669579,"dealCount":8,"geoSrc":"esri","sizes":[{"pyeong":18.1,"area_m2":59.97,"n":8,"sale":2.4}]},{"name":"헤븐하임","gu":"진해구","dong":"여좌동","built":2016,"lat":35.152328,"lng":128.66829,"dealCount":3,"geoSrc":"esri","sizes":[{"pyeong":19.5,"area_m2":64.32,"n":2,"sale":1.9,"jeonse":1.4},{"pyeong":24.5,"area_m2":80.94,"n":1,"sale":2.4}]},{"name":"석동빌라","gu":"진해구","dong":"석동","built":1992,"lat":35.158934,"lng":128.701459,"dealCount":2,"geoSrc":"esri","sizes":[{"pyeong":24.7,"area_m2":81.78,"n":2,"jeonse":0.9}]},{"name":"금화골든파크","gu":"진해구","dong":"여좌동","built":2004,"lat":35.152911,"lng":128.660847,"dealCount":5,"geoSrc":"esri","sizes":[{"pyeong":11.0,"area_m2":36.46,"n":2,"sale":0.63},{"pyeong":25.5,"area_m2":84.45,"n":1,"sale":1.63}]},{"name":"남흥","gu":"진해구","dong":"이동","built":1991,"lat":35.153966,"lng":128.694367,"dealCount":11,"geoSrc":"esri","sizes":[{"pyeong":23.4,"area_m2":77.21,"n":4,"sale":1.0,"jeonse":1.1},{"pyeong":25.7,"area_m2":84.96,"n":6,"sale":1.68,"jeonse":1.3},{"pyeong":38.9,"area_m2":128.63,"n":1,"sale":2.35}]},{"name":"자은동더샵","gu":"진해구","dong":"자은동","built":2005,"lat":35.142283,"lng":128.709475,"dealCount":18,"geoSrc":"esri","sizes":[{"pyeong":22.4,"area_m2":74.16,"n":2,"sale":2.33,"jeonse":1.8},{"pyeong":25.5,"area_m2":84.42,"n":12,"sale":2.45,"jeonse":1.8},{"pyeong":37.3,"area_m2":123.22,"n":4,"sale":3.08,"jeonse":2.45}]},{"name":"부영2차","gu":"진해구","dong":"청안동","built":2002,"lat":35.103381,"lng":128.803689,"dealCount":35,"geoSrc":"esri","sizes":[{"pyeong":18.1,"area_m2":59.84,"n":35,"sale":1.0,"jeonse":1.1}]},{"name":"센트럴빌리지","gu":"진해구","dong":"자은동","built":2018,"lat":35.156476,"lng":128.717172,"dealCount":44,"geoSrc":"esri","sizes":[{"pyeong":18.1,"area_m2":59.95,"n":42,"sale":2.57,"jeonse":2.1}]},{"name":"녹수빌라","gu":"진해구","dong":"풍호동","built":1991,"lat":35.137489,"lng":128.709574,"dealCount":6,"geoSrc":"esri","sizes":[{"pyeong":16.7,"area_m2":55.24,"n":4,"sale":0.45},{"pyeong":22.2,"area_m2":73.35,"n":2,"sale":0.6}]},{"name":"자은프라임","gu":"진해구","dong":"자은동","built":2015,"lat":35.15307,"lng":128.720166,"dealCount":126,"geoSrc":"esri","sizes":[{"pyeong":18.1,"area_m2":59.9,"n":72,"sale":2.25,"jeonse":2.0},{"pyeong":22.6,"area_m2":74.56,"n":17,"sale":2.73,"jeonse":2.3},{"pyeong":25.7,"area_m2":84.89,"n":37,"sale":2.95,"jeonse":2.45}]},{"name":"청안해오름","gu":"진해구","dong":"두동","built":2004,"lat":35.120531,"lng":128.790592,"dealCount":16,"geoSrc":"esri","sizes":[{"pyeong":25.7,"area_m2":84.92,"n":10,"sale":0.88}]},{"name":"경화동더샵","gu":"진해구","dong":"경화동","built":2005,"lat":35.160029,"lng":128.679963,"dealCount":19,"geoSrc":"esri","sizes":[{"pyeong":25.7,"area_m2":84.94,"n":19,"sale":2.0,"jeonse":1.5}]},{"name":"협성DS.이아이존빌","gu":"진해구","dong":"자은동","built":2014,"lat":35.140154,"lng":128.703876,"dealCount":37,"geoSrc":"esri","sizes":[{"pyeong":18.1,"area_m2":59.97,"n":15,"sale":2.42,"jeonse":2.0},{"pyeong":25.7,"area_m2":84.98,"n":22,"sale":3.1,"jeonse":2.6}]},{"name":"진해남문하우스디","gu":"진해구","dong":"남문동","built":2019,"lat":35.104556,"lng":128.753152,"dealCount":32,"geoSrc":"esri","sizes":[{"pyeong":22.1,"area_m2":72.97,"n":5,"jeonse":1.5},{"pyeong":25.7,"area_m2":84.93,"n":27,"sale":2.1,"jeonse":1.2}]},{"name":"성호에코허니문","gu":"진해구","dong":"경화동","built":2013,"lat":35.158162,"lng":128.690136,"dealCount":11,"geoSrc":"esri","sizes":[{"pyeong":11.7,"area_m2":38.83,"n":10,"sale":0.71,"jeonse":0.65}]},{"name":"대신한울","gu":"진해구","dong":"부흥동","built":1994,"lat":35.146742,"lng":128.662514,"dealCount":8,"geoSrc":"esri","sizes":[{"pyeong":18.0,"area_m2":59.57,"n":5,"sale":0.68},{"pyeong":25.7,"area_m2":84.98,"n":3,"sale":0.8,"jeonse":0.9}]},{"name":"진해녹산현대","gu":"진해구","dong":"용원동","built":1998,"lat":35.103777,"lng":128.809947,"dealCount":39,"geoSrc":"esri","sizes":[{"pyeong":25.7,"area_m2":84.97,"n":39,"sale":1.35,"jeonse":1.45}]},{"name":"아델펠리스","gu":"진해구","dong":"숭인동","built":2016,"lat":35.145221,"lng":128.658419,"dealCount":1,"geoSrc":"esri","sizes":[{"pyeong":23.9,"area_m2":78.91,"n":1,"jeonse":1.35}]},{"name":"대동빌라트","gu":"진해구","dong":"자은동","built":1996,"lat":35.15159,"lng":128.707682,"dealCount":12,"geoSrc":"esri","sizes":[{"pyeong":25.7,"area_m2":84.9,"n":9,"sale":2.4,"jeonse":1.9},{"pyeong":39.4,"area_m2":130.35,"n":3,"sale":3.16}]},{"name":"리젠시빌란트","gu":"진해구","dong":"남문동","built":2019,"lat":35.104384,"lng":128.758575,"dealCount":58,"geoSrc":"esri","sizes":[{"pyeong":22.2,"area_m2":73.5,"n":24,"jeonse":1.5},{"pyeong":25.7,"area_m2":84.82,"n":34,"jeonse":1.68}]},{"name":"대림","gu":"진해구","dong":"석동","built":1992,"lat":35.160085,"lng":128.699037,"dealCount":7,"geoSrc":"esri","sizes":[{"pyeong":13.5,"area_m2":44.47,"n":7,"sale":0.8}]},{"name":"삼정그린코아1단지","gu":"진해구","dong":"경화동","built":2005,"lat":35.161476,"lng":128.682234,"dealCount":7,"geoSrc":"esri","sizes":[{"pyeong":25.7,"area_m2":84.89,"n":7,"sale":1.84,"jeonse":1.8}]},{"name":"원창베스트빌","gu":"진해구","dong":"자은동","built":2003,"lat":35.141575,"lng":128.70456,"dealCount":9,"geoSrc":"esri","sizes":[{"pyeong":16.2,"area_m2":53.57,"n":8,"sale":0.83,"jeonse":0.65},{"pyeong":17.9,"area_m2":59.31,"n":1,"sale":1.29}]},{"name":"자은중흥에스-클래스","gu":"진해구","dong":"자은동","built":2017,"lat":35.152749,"lng":128.718319,"dealCount":55,"geoSrc":"esri","sizes":[{"pyeong":23.0,"area_m2":76.16,"n":12,"sale":3.53,"jeonse":2.6},{"pyeong":25.7,"area_m2":84.86,"n":43,"sale":3.4,"jeonse":3.2}]},{"name":"벽산이솔렌스힐","gu":"진해구","dong":"장천동","built":2008,"lat":35.130256,"lng":128.709781,"dealCount":11,"geoSrc":"esri","sizes":[{"pyeong":25.7,"area_m2":84.95,"n":8,"sale":2.75,"jeonse":2.0},{"pyeong":36.5,"area_m2":120.72,"n":1,"jeonse":2.2},{"pyeong":42.5,"area_m2":140.47,"n":2,"sale":3.6}]},{"name":"경화","gu":"진해구","dong":"경화동","built":1985,"lat":35.156605,"lng":128.691118,"dealCount":3,"geoSrc":"esri","sizes":[{"pyeong":15.8,"area_m2":52.29,"n":3,"sale":0.55}]},{"name":"동화맨션A동","gu":"진해구","dong":"소사동","built":1996,"lat":35.126546,"lng":128.778627,"dealCount":2,"geoSrc":"esri","sizes":[{"pyeong":14.9,"area_m2":49.2,"n":1,"sale":0.38}]},{"name":"한결예다움","gu":"진해구","dong":"마천동","built":2014,"lat":35.123313,"lng":128.787376,"dealCount":8,"geoSrc":"esri","sizes":[{"pyeong":15.1,"area_m2":50.0,"n":8,"sale":0.61}]},{"name":"정원아트빌","gu":"진해구","dong":"화천동","built":2001,"lat":35.152234,"lng":128.658342,"dealCount":3,"geoSrc":"esri","sizes":[{"pyeong":25.5,"area_m2":84.23,"n":3,"sale":1.3}]},{"name":"데시앙","gu":"진해구","dong":"부흥동","built":2007,"lat":35.147453,"lng":128.661811,"dealCount":15,"geoSrc":"esri","sizes":[{"pyeong":25.7,"area_m2":84.96,"n":11,"sale":2.05,"jeonse":1.55},{"pyeong":38.3,"area_m2":126.58,"n":4,"sale":3.25}]},{"name":"더프라임","gu":"진해구","dong":"충무동","built":2016,"lat":35.151801,"lng":128.669596,"dealCount":1,"geoSrc":"esri","sizes":[{"pyeong":25.6,"area_m2":84.74,"n":1,"jeonse":1.2}]},{"name":"신광","gu":"진해구","dong":"풍호동","built":1990,"lat":35.135537,"lng":128.70671,"dealCount":5,"geoSrc":"esri","sizes":[{"pyeong":14.2,"area_m2":46.8,"n":2,"sale":0.33}]},{"name":"유림빌","gu":"진해구","dong":"인사동","built":2013,"lat":35.149872,"lng":128.665817,"dealCount":3,"geoSrc":"esri","sizes":[{"pyeong":13.6,"area_m2":44.95,"n":3,"sale":1.05}]},{"name":"초원빌라(923)","gu":"진해구","dong":"경화동","built":1992,"lat":35.15705,"lng":128.688962,"dealCount":4,"geoSrc":"esri","sizes":[{"pyeong":23.8,"area_m2":78.63,"n":2,"sale":0.9}]},{"name":"디에스아이존빌","gu":"진해구","dong":"풍호동","built":2002,"lat":35.138693,"lng":128.70647,"dealCount":14,"geoSrc":"esri","sizes":[{"pyeong":18.1,"area_m2":59.96,"n":4,"sale":1.84},{"pyeong":23.1,"area_m2":76.22,"n":2,"sale":1.86},{"pyeong":25.6,"area_m2":84.61,"n":6,"sale":2.47,"jeonse":1.9},{"pyeong":32.6,"area_m2":107.67,"n":2,"sale":2.65}]},{"name":"한림리츠빌","gu":"진해구","dong":"풍호동","built":2005,"lat":35.139535,"lng":128.708668,"dealCount":29,"geoSrc":"esri","sizes":[{"pyeong":25.7,"area_m2":84.98,"n":15,"sale":2.7,"jeonse":2.1},{"pyeong":39.8,"area_m2":131.64,"n":10,"sale":3.2},{"pyeong":57.4,"area_m2":189.65,"n":4,"sale":4.1}]},{"name":"미성빌리지4차","gu":"진해구","dong":"대죽동","built":2015,"lat":35.140381,"lng":128.671712,"dealCount":5,"geoSrc":"esri","sizes":[{"pyeong":23.7,"area_m2":78.36,"n":5,"sale":2.4,"jeonse":1.7}]},{"name":"삼성아파트1단지","gu":"진해구","dong":"자은동","built":1993,"lat":35.147923,"lng":128.70846,"dealCount":12,"geoSrc":"esri","sizes":[{"pyeong":14.9,"area_m2":49.14,"n":5,"sale":0.92},{"pyeong":18.1,"area_m2":59.92,"n":7,"sale":0.95,"jeonse":1.05}]},{"name":"삼성아파트2단지","gu":"진해구","dong":"자은동","built":1993,"lat":35.147933,"lng":128.709837,"dealCount":10,"geoSrc":"esri","sizes":[{"pyeong":18.1,"area_m2":59.92,"n":10,"sale":0.94,"jeonse":1.13}]},{"name":"대풍","gu":"진해구","dong":"북부동","built":1996,"lat":35.115022,"lng":128.747773,"dealCount":8,"geoSrc":"esri","sizes":[{"pyeong":18.1,"area_m2":59.82,"n":8,"sale":0.55}]},{"name":"월드메르디앙","gu":"진해구","dong":"자은동","built":2008,"lat":35.150944,"lng":128.712163,"dealCount":12,"geoSrc":"esri","sizes":[{"pyeong":25.7,"area_m2":84.92,"n":8,"sale":2.56,"jeonse":1.48},{"pyeong":38.2,"area_m2":126.24,"n":4,"sale":3.38}]},{"name":"평화그린파크","gu":"진해구","dong":"제황산동","built":1996,"lat":35.146135,"lng":128.669488,"dealCount":4,"geoSrc":"esri","sizes":[{"pyeong":18.1,"area_m2":59.88,"n":2,"jeonse":0.6},{"pyeong":25.7,"area_m2":84.87,"n":2,"sale":1.5}]},{"name":"좋은아침","gu":"진해구","dong":"석동","built":2005,"lat":35.16081,"lng":128.699649,"dealCount":4,"geoSrc":"esri","sizes":[{"pyeong":21.2,"area_m2":70.22,"n":4,"sale":1.55}]},{"name":"수진빌라트","gu":"진해구","dong":"광화동","built":2002,"lat":35.147812,"lng":128.660159,"dealCount":1,"geoSrc":"esri","sizes":[{"pyeong":25.6,"area_m2":84.6,"n":1,"jeonse":1.0}]},{"name":"삼정그린코아2단지","gu":"진해구","dong":"경화동","built":2005,"lat":35.16131,"lng":128.682706,"dealCount":5,"geoSrc":"esri","sizes":[{"pyeong":25.7,"area_m2":84.89,"n":5,"sale":2.05,"jeonse":1.5}]},{"name":"미래골든빌","gu":"진해구","dong":"태평동","built":2007,"lat":35.146406,"lng":128.659945,"dealCount":5,"geoSrc":"esri","sizes":[{"pyeong":24.5,"area_m2":80.9,"n":1,"sale":1.35},{"pyeong":25.7,"area_m2":84.89,"n":4,"sale":1.47,"jeonse":1.2}]},{"name":"송림홈타운","gu":"진해구","dong":"덕산동","built":2002,"lat":35.14501,"lng":128.702754,"dealCount":3,"geoSrc":"esri","sizes":[{"pyeong":25.5,"area_m2":84.15,"n":3,"sale":1.15}]},{"name":"한솔솔파크1단지","gu":"진해구","dong":"석동","built":2009,"lat":35.159306,"lng":128.703871,"dealCount":8,"geoSrc":"esri","sizes":[{"pyeong":39.8,"area_m2":131.48,"n":8,"sale":3.85,"jeonse":2.7}]},{"name":"삼양프라자5차","gu":"진해구","dong":"이동","built":2003,"lat":35.149385,"lng":128.70228,"dealCount":2,"geoSrc":"esri","sizes":[{"pyeong":25.1,"area_m2":83.04,"n":2,"sale":1.1}]},{"name":"세진맨션","gu":"진해구","dong":"소사동","built":1994,"lat":35.128147,"lng":128.776924,"dealCount":3,"geoSrc":"esri","sizes":[{"pyeong":18.1,"area_m2":59.85,"n":2,"sale":0.4},{"pyeong":20.1,"area_m2":66.39,"n":1,"sale":0.48}]},{"name":"대광","gu":"진해구","dong":"여좌동","built":1996,"lat":35.153995,"lng":128.658313,"dealCount":7,"geoSrc":"esri","sizes":[{"pyeong":18.1,"area_m2":59.86,"n":3,"sale":1.2},{"pyeong":21.8,"area_m2":71.99,"n":1,"sale":1.27},{"pyeong":25.7,"area_m2":84.8,"n":3,"sale":1.33}]},{"name":"시인의마을","gu":"진해구","dong":"태백동","built":2002,"lat":35.155992,"lng":128.67287,"dealCount":7,"geoSrc":"esri","sizes":[{"pyeong":18.1,"area_m2":59.74,"n":7,"sale":1.2,"jeonse":0.8}]},{"name":"한림","gu":"진해구","dong":"석동","built":1995,"lat":35.157763,"lng":128.693827,"dealCount":6,"geoSrc":"esri","sizes":[{"pyeong":14.4,"area_m2":47.72,"n":1,"jeonse":0.6},{"pyeong":18.1,"area_m2":59.72,"n":3,"sale":0.7},{"pyeong":25.1,"area_m2":83.01,"n":2,"sale":1.0}]},{"name":"보람더-좋은","gu":"진해구","dong":"이동","built":2012,"lat":35.157808,"lng":128.69431,"dealCount":2,"geoSrc":"esri","sizes":[{"pyeong":22.2,"area_m2":73.22,"n":1,"sale":1.8}]},{"name":"부길","gu":"진해구","dong":"풍호동","built":1996,"lat":35.13711,"lng":128.704203,"dealCount":2,"geoSrc":"esri","sizes":[{"pyeong":25.5,"area_m2":84.32,"n":2,"sale":1.48,"jeonse":0.9}]},{"name":"위드필오션베이","gu":"진해구","dong":"대죽동","built":2017,"lat":35.139383,"lng":128.672486,"dealCount":10,"geoSrc":"esri","sizes":[{"pyeong":24.1,"area_m2":79.72,"n":10,"sale":2.51}]},{"name":"원창훼미리","gu":"진해구","dong":"경화동","built":1999,"lat":35.16072,"lng":128.693403,"dealCount":8,"geoSrc":"esri","sizes":[{"pyeong":18.1,"area_m2":59.68,"n":8,"sale":0.81,"jeonse":0.83}]},{"name":"한동더푸름","gu":"진해구","dong":"경화동","built":2012,"lat":35.157437,"lng":128.692206,"dealCount":5,"geoSrc":"esri","sizes":[{"pyeong":15.5,"area_m2":51.09,"n":1,"sale":1.07},{"pyeong":20.9,"area_m2":69.24,"n":4,"sale":1.28,"jeonse":1.4}]},{"name":"경화보람아름채CITY","gu":"진해구","dong":"경화동","built":2016,"lat":35.157113,"lng":128.691119,"dealCount":4,"geoSrc":"esri","sizes":[{"pyeong":15.1,"area_m2":49.92,"n":4,"sale":1.5}]},{"name":"씨스위트빌","gu":"진해구","dong":"경화동","built":2003,"lat":35.157186,"lng":128.684849,"dealCount":4,"geoSrc":"esri","sizes":[{"pyeong":25.6,"area_m2":84.5,"n":4,"sale":1.21,"jeonse":1.2}]},{"name":"로얄스톤2차","gu":"진해구","dong":"화천동","built":2014,"lat":35.152004,"lng":128.657453,"dealCount":2,"geoSrc":"esri","sizes":[{"pyeong":25.6,"area_m2":84.48,"n":2,"sale":1.5,"jeonse":1.2}]},{"name":"준영빌","gu":"진해구","dong":"근화동","built":2007,"lat":35.146666,"lng":128.659818,"dealCount":1,"geoSrc":"esri","sizes":[{"pyeong":18.9,"area_m2":62.4,"n":1,"jeonse":0.4}]},{"name":"신생비치","gu":"진해구","dong":"태평동","built":1993,"lat":35.143527,"lng":128.670929,"dealCount":2,"geoSrc":"esri","sizes":[{"pyeong":25.7,"area_m2":84.92,"n":2,"sale":1.59}]},{"name":"태연1차","gu":"진해구","dong":"화천동","built":2015,"lat":35.151883,"lng":128.658207,"dealCount":3,"geoSrc":"esri","sizes":[{"pyeong":23.9,"area_m2":78.92,"n":3,"sale":1.7,"jeonse":1.2}]},{"name":"덕진디딤돌","gu":"진해구","dong":"경화동","built":2015,"lat":35.159126,"lng":128.680084,"dealCount":3,"geoSrc":"esri","sizes":[{"pyeong":17.2,"area_m2":57.0,"n":1,"sale":1.19},{"pyeong":17.5,"area_m2":57.88,"n":2,"sale":1.34,"jeonse":1.2}]},{"name":"금화빌라","gu":"진해구","dong":"여좌동","built":1992,"lat":35.154729,"lng":128.658558,"dealCount":2,"geoSrc":"esri","sizes":[{"pyeong":25.7,"area_m2":84.98,"n":1,"sale":0.9}]},{"name":"마산가포부영아파트","gu":"마산합포구","dong":"월영동","built":2016,"lat":35.171154,"lng":128.562236,"dealCount":357,"geoSrc":"esri","sizes":[{"pyeong":25.7,"area_m2":84.99,"n":357,"jeonse":1.76}]},{"name":"상록","gu":"마산합포구","dong":"교방동","built":2008,"lat":35.213701,"lng":128.563408,"dealCount":213,"geoSrc":"esri","sizes":[{"pyeong":18.1,"area_m2":59.96,"n":192,"jeonse":1.32},{"pyeong":25.7,"area_m2":84.98,"n":21,"jeonse":1.66}]},{"name":"현대3","gu":"마산합포구","dong":"월영동","built":1998,"lat":35.171869,"lng":128.558167,"dealCount":27,"geoSrc":"esri","sizes":[{"pyeong":18.1,"area_m2":59.98,"n":15,"sale":1.4,"jeonse":1.3},{"pyeong":25.7,"area_m2":84.91,"n":12,"sale":1.85,"jeonse":1.7}]},{"name":"창원롯데캐슬프리미어","gu":"마산합포구","dong":"교방동","built":2020,"lat":35.215395,"lng":128.567021,"dealCount":198,"geoSrc":"esri","sizes":[{"pyeong":12.0,"area_m2":39.8,"n":58,"sale":2.06,"jeonse":1.8},{"pyeong":15.0,"area_m2":49.57,"n":12,"sale":2.73,"jeonse":2.2},{"pyeong":18.1,"area_m2":59.98,"n":23,"sale":3.94,"jeonse":3.1},{"pyeong":20.2,"area_m2":66.64,"n":5,"sale":4.1},{"pyeong":25.7,"area_m2":84.95,"n":100,"sale":4.25,"jeonse":3.8}]},{"name":"무학산벽산블루밍2단지","gu":"마산합포구","dong":"교방동","built":2009,"lat":35.215518,"lng":128.56188,"dealCount":52,"geoSrc":"esri","sizes":[{"pyeong":18.1,"area_m2":59.86,"n":9,"sale":2.38,"jeonse":2.0},{"pyeong":22.3,"area_m2":73.87,"n":3,"sale":2.58,"jeonse":2.25},{"pyeong":25.7,"area_m2":84.99,"n":29,"sale":2.5,"jeonse":2.5},{"pyeong":37.0,"area_m2":122.23,"n":8,"sale":3.63,"jeonse":2.8},{"pyeong":40.7,"area_m2":134.4,"n":3,"sale":3.58}]},{"name":"현대2","gu":"마산합포구","dong":"월영동","built":1998,"lat":35.173971,"lng":128.558155,"dealCount":35,"geoSrc":"esri","sizes":[{"pyeong":18.1,"area_m2":59.98,"n":22,"sale":1.45,"jeonse":1.4},{"pyeong":25.5,"area_m2":84.19,"n":1,"jeonse":1.68},{"pyeong":25.7,"area_m2":84.91,"n":12,"sale":1.78,"jeonse":1.7}]},{"name":"화인아트빌라2","gu":"마산합포구","dong":"월영동","built":1992,"lat":35.174391,"lng":128.555742,"dealCount":27,"geoSrc":"esri","sizes":[{"pyeong":18.3,"area_m2":60.37,"n":4,"sale":1.1},{"pyeong":20.7,"area_m2":68.33,"n":8,"sale":1.05,"jeonse":0.9},{"pyeong":25.7,"area_m2":84.97,"n":15,"sale":1.15,"jeonse":1.1}]},{"name":"마창대교반도유보라아이비파크","gu":"마산합포구","dong":"가포동","built":2024,"lat":35.157081,"lng":128.574878,"dealCount":136,"geoSrc":"esri","sizes":[{"pyeong":22.7,"area_m2":74.97,"n":83,"sale":2.75,"jeonse":1.89},{"pyeong":25.7,"area_m2":84.98,"n":53,"sale":3.0,"jeonse":2.1}]},{"name":"중흥S클래스프라디움3차","gu":"마산합포구","dong":"현동","built":2017,"lat":35.147979,"lng":128.559696,"dealCount":86,"geoSrc":"esri","sizes":[{"pyeong":25.7,"area_m2":84.98,"n":69,"sale":2.75,"jeonse":2.4},{"pyeong":28.8,"area_m2":95.28,"n":5,"sale":3.2},{"pyeong":31.9,"area_m2":105.32,"n":8,"sale":3.4,"jeonse":2.9},{"pyeong":32.6,"area_m2":107.93,"n":4,"jeonse":2.4}]},{"name":"창원푸르지오더플래티넘2단지","gu":"마산합포구","dong":"교방동","built":2024,"lat":35.210572,"lng":128.569657,"dealCount":153,"geoSrc":"esri","sizes":[{"pyeong":18.1,"area_m2":59.67,"n":8,"sale":3.4,"jeonse":2.42},{"pyeong":22.4,"area_m2":74.17,"n":13,"sale":4.1,"jeonse":2.57},{"pyeong":25.4,"area_m2":84.03,"n":29,"sale":4.6,"jeonse":3.2},{"pyeong":25.7,"area_m2":84.81,"n":81,"sale":4.53,"jeonse":3.1},{"pyeong":31.2,"area_m2":103.19,"n":22,"sale":5.5,"jeonse":4.0}]},{"name":"창원푸르지오더플래티넘3단지","gu":"마산합포구","dong":"교방동","built":2024,"lat":35.210572,"lng":128.569657,"dealCount":158,"geoSrc":"esri","sizes":[{"pyeong":11.8,"area_m2":39.16,"n":90,"jeonse":1.57},{"pyeong":17.9,"area_m2":59.09,"n":16,"sale":3.68,"jeonse":2.7},{"pyeong":22.4,"area_m2":74.17,"n":13,"sale":3.9,"jeonse":2.6},{"pyeong":25.4,"area_m2":84.03,"n":16,"sale":4.62,"jeonse":3.6},{"pyeong":25.5,"area_m2":84.31,"n":23,"sale":4.56,"jeonse":2.94}]},{"name":"성원","gu":"마산합포구","dong":"지산리","built":1992,"lat":35.11721,"lng":128.463366,"dealCount":9,"geoSrc":"esri","sizes":[{"pyeong":18.1,"area_m2":59.98,"n":1,"sale":0.56},{"pyeong":21.1,"area_m2":69.76,"n":8,"sale":0.57}]},{"name":"삼익","gu":"마산합포구","dong":"신포동2가","built":1979,"lat":35.201199,"lng":128.571265,"dealCount":34,"geoSrc":"esri","sizes":[{"pyeong":13.6,"area_m2":44.86,"n":7,"sale":0.9,"jeonse":0.8},{"pyeong":18.9,"area_m2":62.64,"n":6,"sale":1.2},{"pyeong":25.5,"area_m2":84.26,"n":10,"sale":1.41,"jeonse":1.3},{"pyeong":25.5,"area_m2":84.43,"n":7,"sale":1.15,"jeonse":1.35},{"pyeong":42.9,"area_m2":141.98,"n":3,"jeonse":1.6}]},{"name":"산호경동리인","gu":"마산합포구","dong":"산호동","built":2018,"lat":35.215452,"lng":128.5888,"dealCount":77,"geoSrc":"esri","sizes":[{"pyeong":20.6,"area_m2":68.0,"n":21,"sale":2.85,"jeonse":3.0},{"pyeong":22.3,"area_m2":73.79,"n":32,"sale":2.95,"jeonse":2.6},{"pyeong":25.7,"area_m2":85.0,"n":23,"sale":3.35,"jeonse":2.95},{"pyeong":29.4,"area_m2":97.06,"n":1,"sale":3.9}]},{"name":"경동메르빌","gu":"마산합포구","dong":"월포동","built":2005,"lat":35.192933,"lng":128.567699,"dealCount":49,"geoSrc":"esri","sizes":[{"pyeong":18.0,"area_m2":59.51,"n":13,"sale":2.25,"jeonse":1.89},{"pyeong":21.6,"area_m2":71.3,"n":4,"sale":2.6},{"pyeong":25.6,"area_m2":84.69,"n":28,"sale":3.3,"jeonse":2.4},{"pyeong":35.8,"area_m2":118.25,"n":4,"sale":4.1,"jeonse":3.5}]},{"name":"마린애시앙부영","gu":"마산합포구","dong":"월영동","built":2019,"lat":35.174365,"lng":128.567392,"dealCount":694,"geoSrc":"esri","sizes":[{"pyeong":25.7,"area_m2":84.95,"n":537,"sale":3.85,"jeonse":3.2},{"pyeong":37.7,"area_m2":124.66,"n":69,"sale":6.08,"jeonse":4.2},{"pyeong":45.3,"area_m2":149.6,"n":88,"sale":5.93,"jeonse":4.5}]},{"name":"두산2","gu":"마산합포구","dong":"해운동","built":1993,"lat":35.179292,"lng":128.564377,"dealCount":25,"geoSrc":"esri","sizes":[{"pyeong":18.0,"area_m2":59.34,"n":14,"sale":1.38,"jeonse":1.25},{"pyeong":25.7,"area_m2":84.84,"n":6,"sale":2.15,"jeonse":1.87},{"pyeong":40.1,"area_m2":132.72,"n":5,"sale":2.89,"jeonse":2.35}]},{"name":"엘에이치그린품애","gu":"마산합포구","dong":"현동","built":2015,"lat":35.142936,"lng":128.556809,"dealCount":43,"geoSrc":"esri","sizes":[{"pyeong":18.1,"area_m2":59.8,"n":21,"sale":1.6,"jeonse":1.59},{"pyeong":22.6,"area_m2":74.74,"n":6,"sale":2.08,"jeonse":1.9},{"pyeong":25.7,"area_m2":84.91,"n":16,"sale":2.2,"jeonse":2.0}]},{"name":"화인","gu":"마산합포구","dong":"완월동","built":1994,"lat":35.195627,"lng":128.557666,"dealCount":22,"geoSrc":"esri","sizes":[{"pyeong":18.1,"area_m2":59.93,"n":13,"sale":0.93,"jeonse":0.85},{"pyeong":25.5,"area_m2":84.22,"n":7,"sale":1.16,"jeonse":1.0},{"pyeong":41.4,"area_m2":136.92,"n":2,"sale":1.8}]},{"name":"한일비치맨션아파트","gu":"마산합포구","dong":"해운동","built":1996,"lat":35.177953,"lng":128.566634,"dealCount":12,"geoSrc":"esri","sizes":[{"pyeong":18.2,"area_m2":60.0,"n":4,"sale":1.27,"jeonse":1.16},{"pyeong":19.9,"area_m2":65.7,"n":5,"sale":1.35,"jeonse":1.35},{"pyeong":43.3,"area_m2":143.04,"n":3,"sale":2.6,"jeonse":2.3}]},{"name":"현대건설1차","gu":"마산합포구","dong":"월영동","built":1998,"lat":35.174837,"lng":128.557371,"dealCount":40,"geoSrc":"esri","sizes":[{"pyeong":18.1,"area_m2":59.7,"n":20,"sale":1.25,"jeonse":0.2},{"pyeong":25.7,"area_m2":84.97,"n":20,"sale":1.65,"jeonse":1.67}]},{"name":"신화하니엘더마린2단지","gu":"마산합포구","dong":"진동리","built":2017,"lat":35.111922,"lng":128.488756,"dealCount":13,"geoSrc":"esri","sizes":[{"pyeong":18.1,"area_m2":59.98,"n":13,"sale":1.4}]},{"name":"한일유앤아이","gu":"마산합포구","dong":"진동리","built":2008,"lat":35.120912,"lng":128.488362,"dealCount":42,"geoSrc":"esri","sizes":[{"pyeong":25.7,"area_m2":84.99,"n":26,"sale":1.7,"jeonse":1.45},{"pyeong":37.5,"area_m2":123.87,"n":11,"sale":2.79,"jeonse":2.1},{"pyeong":44.6,"area_m2":147.57,"n":1,"jeonse":2.5},{"pyeong":52.6,"area_m2":174.03,"n":4,"sale":3.15,"jeonse":2.8}]},{"name":"경남","gu":"마산합포구","dong":"창포동2가","built":1990,"lat":35.183728,"lng":128.562087,"dealCount":8,"geoSrc":"esri","sizes":[{"pyeong":23.2,"area_m2":76.83,"n":1,"sale":1.73},{"pyeong":25.6,"area_m2":84.59,"n":4,"sale":1.6,"jeonse":1.5},{"pyeong":39.0,"area_m2":128.94,"n":3,"sale":2.5,"jeonse":1.8}]},{"name":"두산3","gu":"마산합포구","dong":"해운동","built":1995,"lat":35.178245,"lng":128.565215,"dealCount":52,"geoSrc":"esri","sizes":[{"pyeong":18.0,"area_m2":59.34,"n":25,"sale":1.52,"jeonse":1.28},{"pyeong":25.7,"area_m2":84.84,"n":27,"sale":1.89,"jeonse":1.6}]},{"name":"신포동이담채","gu":"마산합포구","dong":"신포동2가","built":2016,"lat":35.203147,"lng":128.574277,"dealCount":8,"geoSrc":"esri","sizes":[{"pyeong":16.6,"area_m2":54.98,"n":3,"jeonse":1.4},{"pyeong":19.1,"area_m2":63.05,"n":3,"sale":1.83}]},{"name":"국제비치타운","gu":"마산합포구","dong":"산호동","built":1996,"lat":35.209589,"lng":128.584674,"dealCount":25,"geoSrc":"esri","sizes":[{"pyeong":17.9,"area_m2":59.07,"n":14,"sale":1.39,"jeonse":1.15},{"pyeong":25.5,"area_m2":84.42,"n":10,"sale":1.8,"jeonse":1.4},{"pyeong":27.5,"area_m2":91.02,"n":1,"jeonse":1.8}]},{"name":"월영동SK오션뷰","gu":"마산합포구","dong":"월영동","built":2017,"lat":35.176151,"lng":128.559468,"dealCount":85,"geoSrc":"esri","sizes":[{"pyeong":18.1,"area_m2":60.0,"n":5,"sale":3.25,"jeonse":2.2},{"pyeong":22.4,"area_m2":73.92,"n":10,"sale":3.58,"jeonse":2.3},{"pyeong":25.7,"area_m2":85.0,"n":62,"sale":3.95,"jeonse":3.0},{"pyeong":30.5,"area_m2":100.77,"n":7,"sale":4.95,"jeonse":3.9},{"pyeong":34.7,"area_m2":114.66,"n":1,"sale":6.95}]},{"name":"월영동아","gu":"마산합포구","dong":"월영동","built":1998,"lat":35.172951,"lng":128.560462,"dealCount":57,"geoSrc":"esri","sizes":[{"pyeong":18.0,"area_m2":59.53,"n":26,"sale":1.5,"jeonse":1.3},{"pyeong":25.7,"area_m2":84.84,"n":31,"sale":1.74,"jeonse":1.68}]},{"name":"산호베스티움","gu":"마산합포구","dong":"산호동","built":2016,"lat":35.208948,"lng":128.58203,"dealCount":29,"geoSrc":"esri","sizes":[{"pyeong":16.0,"area_m2":52.96,"n":17,"sale":1.92,"jeonse":1.65},{"pyeong":17.9,"area_m2":59.12,"n":1,"sale":2.49},{"pyeong":25.2,"area_m2":83.19,"n":11,"sale":2.94,"jeonse":2.79}]},{"name":"오동동다:숲","gu":"마산합포구","dong":"오동동","built":2017,"lat":35.208015,"lng":128.580626,"dealCount":15,"geoSrc":"esri","sizes":[{"pyeong":13.6,"area_m2":45.12,"n":14,"sale":1.43,"jeonse":1.35}]},{"name":"창원칸타빌오션뷰","gu":"마산합포구","dong":"산호동","built":2021,"lat":35.211059,"lng":128.58526,"dealCount":87,"geoSrc":"esri","sizes":[{"pyeong":19.3,"area_m2":63.84,"n":8,"sale":3.0,"jeonse":2.55},{"pyeong":22.7,"area_m2":74.89,"n":79,"sale":3.13,"jeonse":2.9}]},{"name":"마산진동협성엠파이어","gu":"마산합포구","dong":"진동리","built":2014,"lat":35.120252,"lng":128.48759,"dealCount":31,"geoSrc":"esri","sizes":[{"pyeong":18.1,"area_m2":60.0,"n":17,"sale":1.6,"jeonse":1.4},{"pyeong":21.7,"area_m2":71.68,"n":2,"sale":1.78},{"pyeong":25.7,"area_m2":84.98,"n":12,"sale":2.06}]},{"name":"현대5","gu":"마산합포구","dong":"월영동","built":1998,"lat":35.171642,"lng":128.558159,"dealCount":44,"geoSrc":"esri","sizes":[{"pyeong":18.1,"area_m2":59.98,"n":18,"sale":1.31,"jeonse":1.3},{"pyeong":22.5,"area_m2":74.52,"n":9,"sale":1.35,"jeonse":1.48},{"pyeong":25.7,"area_m2":84.94,"n":15,"sale":1.89,"jeonse":1.6},{"pyeong":34.6,"area_m2":114.24,"n":2,"sale":2.4,"jeonse":1.9}]},{"name":"우성","gu":"마산합포구","dong":"자산동","built":1987,"lat":35.203966,"lng":128.55977,"dealCount":6,"geoSrc":"esri","sizes":[{"pyeong":15.7,"area_m2":51.77,"n":6,"sale":0.91,"jeonse":0.68}]},{"name":"월영동아2","gu":"마산합포구","dong":"월영동","built":1998,"lat":35.171857,"lng":128.558464,"dealCount":89,"geoSrc":"esri","sizes":[{"pyeong":18.0,"area_m2":59.62,"n":53,"sale":1.2,"jeonse":1.35},{"pyeong":25.7,"area_m2":84.97,"n":30,"sale":2.15,"jeonse":1.7},{"pyeong":33.0,"area_m2":109.03,"n":1,"jeonse":1.6},{"pyeong":40.8,"area_m2":134.94,"n":4,"sale":2.8}]},{"name":"신추산","gu":"마산합포구","dong":"추산동","built":1996,"lat":35.207025,"lng":128.570195,"dealCount":19,"geoSrc":"esri","sizes":[{"pyeong":12.2,"area_m2":40.18,"n":10,"sale":0.45,"jeonse":0.3},{"pyeong":18.1,"area_m2":59.71,"n":9,"sale":0.91}]},{"name":"무학자이","gu":"마산합포구","dong":"교원동","built":2011,"lat":35.215174,"lng":128.568933,"dealCount":55,"geoSrc":"esri","sizes":[{"pyeong":18.1,"area_m2":59.93,"n":11,"sale":2.85},{"pyeong":25.7,"area_m2":84.99,"n":26,"sale":3.55,"jeonse":2.85},{"pyeong":32.0,"area_m2":105.88,"n":5,"sale":3.8,"jeonse":2.9},{"pyeong":33.9,"area_m2":112.12,"n":9,"sale":4.32,"jeonse":3.15},{"pyeong":38.8,"area_m2":128.39,"n":4,"sale":4.55}]},{"name":"대내주공그린빌","gu":"마산합포구","dong":"대내동","built":2004,"lat":35.181965,"lng":128.557639,"dealCount":31,"geoSrc":"esri","sizes":[{"pyeong":13.7,"area_m2":45.32,"n":24,"sale":1.38,"jeonse":1.2},{"pyeong":16.1,"area_m2":53.12,"n":4,"sale":1.5},{"pyeong":18.0,"area_m2":59.64,"n":3,"sale":2.0}]},{"name":"대동씨코아상가","gu":"마산합포구","dong":"해운동","built":1993,"lat":35.179759,"lng":128.562476,"dealCount":22,"geoSrc":"esri","sizes":[{"pyeong":21.3,"area_m2":70.4,"n":22,"sale":1.35,"jeonse":1.18}]},{"name":"창원가포안단테","gu":"마산합포구","dong":"가포동","built":2023,"lat":35.157187,"lng":128.582094,"dealCount":19,"geoSrc":"esri","sizes":[{"pyeong":18.1,"area_m2":59.97,"n":19,"sale":2.23,"jeonse":1.65}]},{"name":"삼부햇살마루","gu":"마산합포구","dong":"문화동","built":2004,"lat":35.186942,"lng":128.556314,"dealCount":4,"geoSrc":"esri","sizes":[{"pyeong":25.7,"area_m2":84.92,"n":3,"sale":1.85},{"pyeong":33.6,"area_m2":111.15,"n":1,"jeonse":1.5}]},{"name":"중앙마린파이브아파트","gu":"마산합포구","dong":"오동동","built":2014,"lat":35.206599,"lng":128.583549,"dealCount":41,"geoSrc":"esri","sizes":[{"pyeong":21.2,"area_m2":70.14,"n":14,"sale":3.0,"jeonse":2.6},{"pyeong":25.7,"area_m2":84.98,"n":27,"sale":3.2,"jeonse":2.65}]},{"name":"중흥S클래스프라디움1차","gu":"마산합포구","dong":"현동","built":2014,"lat":35.150768,"lng":128.551958,"dealCount":23,"geoSrc":"esri","sizes":[{"pyeong":25.7,"area_m2":84.99,"n":23,"sale":2.4,"jeonse":2.16}]},{"name":"한우아파트","gu":"마산합포구","dong":"자산동","built":1986,"lat":35.202859,"lng":128.559499,"dealCount":46,"geoSrc":"esri","sizes":[{"pyeong":14.5,"area_m2":47.91,"n":7,"sale":0.65},{"pyeong":15.4,"area_m2":50.79,"n":15,"sale":0.9,"jeonse":0.6},{"pyeong":17.5,"area_m2":57.85,"n":6,"sale":0.9,"jeonse":0.7},{"pyeong":17.5,"area_m2":57.96,"n":9,"sale":0.89,"jeonse":0.7},{"pyeong":21.1,"area_m2":69.81,"n":6,"sale":1.0,"jeonse":0.7},{"pyeong":25.0,"area_m2":82.68,"n":3,"sale":1.3,"jeonse":1.0}]},{"name":"롯데빌리지","gu":"마산합포구","dong":"창포동3가","built":2004,"lat":35.181761,"lng":128.560946,"dealCount":51,"geoSrc":"esri","sizes":[{"pyeong":8.1,"area_m2":26.87,"n":22,"sale":0.72,"jeonse":0.6},{"pyeong":9.2,"area_m2":30.57,"n":24,"sale":0.7}]},{"name":"평화리버타운","gu":"마산합포구","dong":"해운동","built":1999,"lat":35.180163,"lng":128.56552,"dealCount":42,"geoSrc":"esri","sizes":[{"pyeong":8.9,"area_m2":29.44,"n":40,"sale":0.7,"jeonse":0.55},{"pyeong":9.6,"area_m2":31.81,"n":2,"jeonse":0.58}]},{"name":"경동메르빌2차","gu":"마산합포구","dong":"중앙동2가","built":2007,"lat":35.194303,"lng":128.567132,"dealCount":23,"geoSrc":"esri","sizes":[{"pyeong":18.1,"area_m2":59.98,"n":7,"sale":2.02,"jeonse":1.8},{"pyeong":25.7,"area_m2":85.0,"n":16,"sale":2.7,"jeonse":2.5}]},{"name":"마산신화하니엘더마린","gu":"마산합포구","dong":"진동리","built":2016,"lat":35.111614,"lng":128.487235,"dealCount":24,"geoSrc":"esri","sizes":[{"pyeong":14.2,"area_m2":47.07,"n":10,"sale":1.3,"jeonse":1.0},{"pyeong":18.1,"area_m2":59.93,"n":5,"sale":1.49},{"pyeong":25.6,"area_m2":84.75,"n":9,"sale":2.11,"jeonse":1.6}]},{"name":"무궁화","gu":"마산합포구","dong":"산호동","built":1982,"lat":35.21733,"lng":128.588753,"dealCount":8,"geoSrc":"esri","sizes":[{"pyeong":16.3,"area_m2":53.88,"n":6,"sale":0.59},{"pyeong":17.9,"area_m2":59.17,"n":2,"sale":0.92,"jeonse":0.4}]},{"name":"다조맨션","gu":"마산합포구","dong":"교방동","built":1997,"lat":35.213021,"lng":128.566049,"dealCount":2,"geoSrc":"esri","sizes":[{"pyeong":20.2,"area_m2":66.72,"n":1,"jeonse":0.8},{"pyeong":20.8,"area_m2":68.7,"n":1,"sale":1.2}]},{"name":"한성가고파","gu":"마산합포구","dong":"월포동","built":1991,"lat":35.190012,"lng":128.564594,"dealCount":3,"geoSrc":"esri","sizes":[{"pyeong":25.7,"area_m2":84.82,"n":3,"sale":1.7}]},{"name":"월영마크리움주상복합","gu":"마산합포구","dong":"월남동5가","built":2017,"lat":35.181297,"lng":128.558248,"dealCount":18,"geoSrc":"esri","sizes":[{"pyeong":19.2,"area_m2":63.58,"n":18,"sale":2.73,"jeonse":2.2}]},{"name":"기산상가","gu":"마산합포구","dong":"오동동","built":1997,"lat":35.20527,"lng":128.580814,"dealCount":12,"geoSrc":"esri","sizes":[{"pyeong":13.3,"area_m2":43.98,"n":6,"sale":0.77},{"pyeong":18.1,"area_m2":59.92,"n":1,"sale":1.09},{"pyeong":25.6,"area_m2":84.48,"n":5,"sale":1.5,"jeonse":0.6}]},{"name":"자산경남상가","gu":"마산합포구","dong":"자산동","built":1994,"lat":35.206307,"lng":128.565114,"dealCount":7,"geoSrc":"esri","sizes":[{"pyeong":18.1,"area_m2":59.97,"n":6,"sale":0.65,"jeonse":0.65},{"pyeong":27.4,"area_m2":90.44,"n":1,"sale":1.17}]},{"name":"현대","gu":"마산합포구","dong":"해운동","built":1995,"lat":35.179959,"lng":128.565618,"dealCount":13,"geoSrc":"esri","sizes":[{"pyeong":18.1,"area_m2":59.95,"n":7,"sale":1.43,"jeonse":1.35},{"pyeong":25.7,"area_m2":84.96,"n":6,"sale":1.77,"jeonse":1.75}]},{"name":"센트럴","gu":"마산합포구","dong":"신포동1가","built":2001,"lat":35.199494,"lng":128.56992,"dealCount":47,"geoSrc":"esri","sizes":[{"pyeong":15.1,"area_m2":49.85,"n":21,"sale":1.25,"jeonse":1.3},{"pyeong":18.1,"area_m2":59.89,"n":20,"sale":1.85,"jeonse":1.7},{"pyeong":25.7,"area_m2":84.84,"n":6,"sale":2.55,"jeonse":2.35}]},{"name":"해운한백","gu":"마산합포구","dong":"해운동","built":2001,"lat":35.181538,"lng":128.562829,"dealCount":6,"geoSrc":"esri","sizes":[{"pyeong":16.4,"area_m2":54.06,"n":2,"sale":0.9},{"pyeong":25.7,"area_m2":84.93,"n":1,"sale":2.15}]},{"name":"성모아일린","gu":"마산합포구","dong":"중앙동3가","built":2012,"lat":35.199241,"lng":128.568201,"dealCount":4,"geoSrc":"esri","sizes":[{"pyeong":21.7,"area_m2":71.68,"n":1,"sale":2.1},{"pyeong":23.7,"area_m2":78.44,"n":3,"jeonse":1.55}]},{"name":"우방","gu":"마산합포구","dong":"중앙동2가","built":1999,"lat":35.196126,"lng":128.567717,"dealCount":20,"geoSrc":"esri","sizes":[{"pyeong":18.2,"area_m2":60.0,"n":1,"sale":1.37},{"pyeong":21.2,"area_m2":69.99,"n":3,"sale":1.92,"jeonse":1.7},{"pyeong":25.7,"area_m2":84.96,"n":8,"sale":2.15,"jeonse":2.0},{"pyeong":35.0,"area_m2":115.8,"n":5,"sale":2.69},{"pyeong":42.3,"area_m2":139.93,"n":3,"sale":2.5}]},{"name":"전원파크맨션아파트","gu":"마산합포구","dong":"완월동","built":1992,"lat":35.198668,"lng":128.557371,"dealCount":9,"geoSrc":"esri","sizes":[{"pyeong":21.5,"area_m2":71.01,"n":4,"sale":0.65,"jeonse":0.6},{"pyeong":23.7,"area_m2":78.28,"n":4,"sale":0.9},{"pyeong":24.8,"area_m2":82.1,"n":1,"sale":1.18}]},{"name":"자산","gu":"마산합포구","dong":"자산동","built":1991,"lat":35.20071,"lng":128.55799,"dealCount":9,"geoSrc":"esri","sizes":[{"pyeong":14.6,"area_m2":48.22,"n":9,"sale":0.63}]},{"name":"평화궁전","gu":"마산합포구","dong":"자산동","built":1990,"lat":35.200731,"lng":128.559278,"dealCount":6,"geoSrc":"esri","sizes":[{"pyeong":25.6,"area_m2":84.47,"n":3,"sale":1.0,"jeonse":0.84},{"pyeong":36.7,"area_m2":121.26,"n":1,"sale":1.5},{"pyeong":45.6,"area_m2":150.88,"n":2,"sale":1.63}]},{"name":"두산1차","gu":"마산합포구","dong":"해운동","built":1991,"lat":35.178623,"lng":128.56337,"dealCount":21,"geoSrc":"esri","sizes":[{"pyeong":20.9,"area_m2":69.0,"n":5,"sale":1.2,"jeonse":1.2},{"pyeong":25.5,"area_m2":84.39,"n":16,"sale":1.45,"jeonse":1.4}]},{"name":"무학산벽산블루밍1단지","gu":"마산합포구","dong":"교방동","built":2009,"lat":35.2163,"lng":128.562122,"dealCount":14,"geoSrc":"esri","sizes":[{"pyeong":25.7,"area_m2":84.93,"n":14,"sale":2.7,"jeonse":2.45}]},{"name":"화인아트빌라1","gu":"마산합포구","dong":"월영동","built":1991,"lat":35.176091,"lng":128.554952,"dealCount":10,"geoSrc":"esri","sizes":[{"pyeong":24.0,"area_m2":79.23,"n":3,"sale":0.87},{"pyeong":25.7,"area_m2":84.99,"n":2,"sale":1.1,"jeonse":1.15},{"pyeong":37.1,"area_m2":122.52,"n":3,"sale":1.48},{"pyeong":43.7,"area_m2":144.34,"n":2,"sale":1.55}]},{"name":"해오름","gu":"마산합포구","dong":"해운동","built":2005,"lat":35.178741,"lng":128.566466,"dealCount":16,"geoSrc":"esri","sizes":[{"pyeong":25.7,"area_m2":84.97,"n":11,"sale":2.49,"jeonse":2.0},{"pyeong":33.6,"area_m2":111.08,"n":5,"sale":3.55,"jeonse":2.5}]},{"name":"일양맨션","gu":"마산합포구","dong":"월포동","built":1985,"lat":35.19056,"lng":128.565031,"dealCount":3,"geoSrc":"esri","sizes":[{"pyeong":18.9,"area_m2":62.61,"n":2,"jeonse":1.1}]},{"name":"장안리츠빌","gu":"마산합포구","dong":"홍문동","built":2005,"lat":35.183605,"lng":128.559347,"dealCount":2,"geoSrc":"esri","sizes":[{"pyeong":25.7,"area_m2":84.85,"n":2,"sale":1.5}]},{"name":"명동파크","gu":"마산합포구","dong":"화영동","built":1989,"lat":35.184292,"lng":128.555906,"dealCount":3,"geoSrc":"esri","sizes":[{"pyeong":29.2,"area_m2":96.39,"n":3,"sale":0.7,"jeonse":0.7}]},{"name":"리치클하우스","gu":"마산합포구","dong":"창포동3가","built":2011,"lat":35.182274,"lng":128.560138,"dealCount":55,"geoSrc":"esri","sizes":[{"pyeong":6.1,"area_m2":20.15,"n":54,"sale":0.48}]},{"name":"해운동성","gu":"마산합포구","dong":"해운동","built":1996,"lat":35.183114,"lng":128.563894,"dealCount":21,"geoSrc":"esri","sizes":[{"pyeong":16.1,"area_m2":53.08,"n":3,"jeonse":1.45},{"pyeong":18.1,"area_m2":59.96,"n":15,"sale":1.79,"jeonse":1.26},{"pyeong":25.7,"area_m2":84.97,"n":3,"sale":1.8}]},{"name":"창원푸르지오더플래티넘1단지","gu":"마산합포구","dong":"교방동","built":2024,"lat":35.210572,"lng":128.569657,"dealCount":71,"geoSrc":"esri","sizes":[{"pyeong":22.4,"area_m2":74.17,"n":6,"sale":4.1,"jeonse":2.1},{"pyeong":25.4,"area_m2":84.03,"n":27,"sale":4.75,"jeonse":3.1},{"pyeong":25.5,"area_m2":84.31,"n":38,"sale":4.58,"jeonse":3.5}]},{"name":"동성","gu":"마산합포구","dong":"자산동","built":1985,"lat":35.200419,"lng":128.558644,"dealCount":2,"geoSrc":"esri","sizes":[{"pyeong":17.8,"area_m2":58.77,"n":2,"jeonse":0.42}]},{"name":"남명세비앙","gu":"마산합포구","dong":"중앙동2가","built":2005,"lat":35.194792,"lng":128.565912,"dealCount":11,"geoSrc":"esri","sizes":[{"pyeong":25.7,"area_m2":84.98,"n":11,"sale":2.1,"jeonse":1.68}]},{"name":"교수","gu":"마산합포구","dong":"중앙동2가","built":1980,"lat":35.195067,"lng":128.56855,"dealCount":3,"geoSrc":"esri","sizes":[{"pyeong":22.1,"area_m2":72.93,"n":2,"jeonse":0.75}]},{"name":"우신뉴타워","gu":"마산합포구","dong":"상남동","built":1996,"lat":35.21146,"lng":128.572622,"dealCount":4,"geoSrc":"esri","sizes":[{"pyeong":18.1,"area_m2":59.96,"n":2,"sale":1.1,"jeonse":0.8},{"pyeong":19.7,"area_m2":65.22,"n":2,"sale":1.1}]},{"name":"벽산블루밍","gu":"마산합포구","dong":"월포동","built":2007,"lat":35.192359,"lng":128.566307,"dealCount":36,"geoSrc":"esri","sizes":[{"pyeong":18.1,"area_m2":59.98,"n":5,"sale":2.2},{"pyeong":25.7,"area_m2":85.0,"n":29,"sale":3.3,"jeonse":2.3},{"pyeong":40.1,"area_m2":132.56,"n":2,"sale":5.2}]},{"name":"용마맨션","gu":"마산합포구","dong":"산호동","built":1978,"lat":35.217828,"lng":128.586032,"dealCount":9,"geoSrc":"esri","sizes":[{"pyeong":24.1,"area_m2":79.67,"n":8,"sale":1.4,"jeonse":1.1},{"pyeong":36.3,"area_m2":120.07,"n":1,"jeonse":1.4}]},{"name":"혜성미","gu":"마산합포구","dong":"중앙동3가","built":2006,"lat":35.198599,"lng":128.568329,"dealCount":6,"geoSrc":"esri","sizes":[{"pyeong":21.1,"area_m2":69.65,"n":6,"sale":1.95,"jeonse":1.4}]},{"name":"월영동성","gu":"마산합포구","dong":"월영동","built":1996,"lat":35.190222,"lng":128.556386,"dealCount":10,"geoSrc":"esri","sizes":[{"pyeong":18.1,"area_m2":59.96,"n":10,"sale":0.79}]},{"name":"삼성타운","gu":"마산합포구","dong":"산호동","built":1996,"lat":35.217239,"lng":128.58398,"dealCount":13,"geoSrc":"esri","sizes":[{"pyeong":18.0,"area_m2":59.61,"n":6,"sale":1.59},{"pyeong":25.7,"area_m2":84.9,"n":4,"sale":2.1},{"pyeong":36.7,"area_m2":121.41,"n":3,"sale":2.68}]},{"name":"창포경민","gu":"마산합포구","dong":"창포동3가","built":1992,"lat":35.182131,"lng":128.561382,"dealCount":7,"geoSrc":"esri","sizes":[{"pyeong":17.4,"area_m2":57.47,"n":4,"sale":0.85},{"pyeong":25.5,"area_m2":84.15,"n":3,"sale":1.67,"jeonse":1.4}]},{"name":"한백가든빌라","gu":"마산합포구","dong":"대외동","built":1995,"lat":35.184754,"lng":128.558685,"dealCount":3,"geoSrc":"esri","sizes":[{"pyeong":44.7,"area_m2":147.75,"n":3,"sale":1.65}]},{"name":"라인아파트","gu":"마산합포구","dong":"지산리","built":2003,"lat":35.116683,"lng":128.464304,"dealCount":2,"geoSrc":"esri","sizes":[{"pyeong":17.9,"area_m2":59.31,"n":1,"sale":0.72}]},{"name":"성원이화맨션","gu":"마산합포구","dong":"진동리","built":1990,"lat":35.112733,"lng":128.485169,"dealCount":5,"geoSrc":"esri","sizes":[{"pyeong":21.0,"area_m2":69.57,"n":2,"sale":0.6,"jeonse":0.5},{"pyeong":23.1,"area_m2":76.45,"n":2,"sale":0.62},{"pyeong":25.7,"area_m2":84.83,"n":1,"sale":0.63}]},{"name":"진달래국민주택","gu":"마산합포구","dong":"월영동","built":1985,"lat":35.178988,"lng":128.557358,"dealCount":3,"geoSrc":"esri","sizes":[{"pyeong":19.3,"area_m2":63.72,"n":1,"sale":0.97},{"pyeong":19.5,"area_m2":64.53,"n":2,"sale":0.95,"jeonse":0.68}]},{"name":"신우희가로베스트","gu":"마산합포구","dong":"중앙동3가","built":2006,"lat":35.197556,"lng":128.567862,"dealCount":13,"geoSrc":"esri","sizes":[{"pyeong":18.1,"area_m2":59.93,"n":9,"sale":2.22,"jeonse":1.71},{"pyeong":25.7,"area_m2":84.96,"n":4,"sale":2.75,"jeonse":2.25}]},{"name":"환웅수빌리지","gu":"마산합포구","dong":"신포동1가","built":2015,"lat":35.199409,"lng":128.571701,"dealCount":4,"geoSrc":"esri","sizes":[{"pyeong":17.4,"area_m2":57.39,"n":4,"jeonse":1.3}]},{"name":"월영대동타운","gu":"마산합포구","dong":"월영동","built":1998,"lat":35.175209,"lng":128.558098,"dealCount":20,"geoSrc":"esri","sizes":[{"pyeong":17.9,"area_m2":59.17,"n":16,"sale":1.45,"jeonse":1.3},{"pyeong":25.6,"area_m2":84.78,"n":3,"sale":1.79},{"pyeong":42.8,"area_m2":141.48,"n":1,"jeonse":2.3}]},{"name":"엘렌시아주상복합","gu":"마산합포구","dong":"월남동3가","built":2016,"lat":35.18535,"lng":128.561108,"dealCount":6,"geoSrc":"esri","sizes":[{"pyeong":18.1,"area_m2":59.95,"n":4,"sale":1.92,"jeonse":1.5},{"pyeong":25.4,"area_m2":83.82,"n":2,"sale":2.55,"jeonse":2.2}]},{"name":"마산만I'PARK","gu":"마산합포구","dong":"신포동1가","built":2010,"lat":35.198042,"lng":128.573888,"dealCount":79,"geoSrc":"esri","sizes":[{"pyeong":25.7,"area_m2":84.96,"n":58,"sale":4.53,"jeonse":3.5},{"pyeong":37.7,"area_m2":124.73,"n":9,"sale":5.8},{"pyeong":46.6,"area_m2":154.04,"n":12,"sale":6.85,"jeonse":4.3}]},{"name":"중흥S클래스프라디움2차","gu":"마산합포구","dong":"현동","built":2015,"lat":35.145185,"lng":128.554784,"dealCount":24,"geoSrc":"esri","sizes":[{"pyeong":25.7,"area_m2":85.0,"n":24,"sale":2.5,"jeonse":2.7}]},{"name":"한백푸른","gu":"마산합포구","dong":"자산동","built":1997,"lat":35.206634,"lng":128.566466,"dealCount":7,"geoSrc":"esri","sizes":[{"pyeong":18.1,"area_m2":59.67,"n":5,"sale":1.43,"jeonse":0.8},{"pyeong":25.7,"area_m2":84.93,"n":1,"jeonse":1.26},{"pyeong":41.7,"area_m2":137.7,"n":1,"sale":1.6}]},{"name":"평화골든타워","gu":"마산합포구","dong":"해운동","built":1993,"lat":35.177239,"lng":128.566395,"dealCount":19,"geoSrc":"esri","sizes":[{"pyeong":18.0,"area_m2":59.34,"n":11,"sale":1.48,"jeonse":1.4},{"pyeong":24.2,"area_m2":80.07,"n":6,"sale":1.19,"jeonse":1.35},{"pyeong":35.6,"area_m2":117.59,"n":2,"sale":2.42}]},{"name":"서광아침의빛","gu":"마산합포구","dong":"오동동","built":2008,"lat":35.207165,"lng":128.581849,"dealCount":11,"geoSrc":"esri","sizes":[{"pyeong":16.7,"area_m2":55.21,"n":1,"sale":1.4},{"pyeong":25.7,"area_m2":84.99,"n":10,"sale":2.2,"jeonse":1.6}]},{"name":"학성아트빌리지","gu":"마산합포구","dong":"자산동","built":2006,"lat":35.206591,"lng":128.562774,"dealCount":1,"geoSrc":"esri","sizes":[{"pyeong":25.7,"area_m2":84.89,"n":1,"jeonse":0.3}]},{"name":"팔도맨션","gu":"마산합포구","dong":"자산동","built":1995,"lat":35.206666,"lng":128.563649,"dealCount":5,"geoSrc":"esri","sizes":[{"pyeong":18.1,"area_m2":59.79,"n":1,"sale":1.1},{"pyeong":21.5,"area_m2":71.01,"n":3,"sale":1.1},{"pyeong":25.6,"area_m2":84.72,"n":1,"sale":0.85}]},{"name":"두월동상우the헤라우스","gu":"마산합포구","dong":"두월동2가","built":2016,"lat":35.18611,"lng":128.560571,"dealCount":10,"geoSrc":"esri","sizes":[{"pyeong":20.8,"area_m2":68.86,"n":5,"sale":2.2},{"pyeong":25.7,"area_m2":84.99,"n":5,"sale":2.55}]},{"name":"창원현동하늘채","gu":"마산합포구","dong":"현동","built":2018,"lat":35.144361,"lng":128.557699,"dealCount":31,"geoSrc":"esri","sizes":[{"pyeong":18.1,"area_m2":59.98,"n":31,"sale":2.1,"jeonse":1.9}]},{"name":"서광2","gu":"마산합포구","dong":"완월동","built":1997,"lat":35.197658,"lng":128.55673,"dealCount":5,"geoSrc":"esri","sizes":[{"pyeong":18.1,"area_m2":59.84,"n":1,"sale":1.03},{"pyeong":25.6,"area_m2":84.75,"n":4,"sale":1.38}]},{"name":"삼우","gu":"마산합포구","dong":"중앙동3가","built":1981,"lat":35.196641,"lng":128.568728,"dealCount":11,"geoSrc":"esri","sizes":[{"pyeong":11.1,"area_m2":36.69,"n":11,"sale":0.7,"jeonse":0.5}]},{"name":"연화","gu":"마산합포구","dong":"중앙동3가","built":1980,"lat":35.20066,"lng":128.567895,"dealCount":2,"geoSrc":"esri","sizes":[{"pyeong":11.3,"area_m2":37.22,"n":2,"sale":0.35}]},{"name":"배진","gu":"마산합포구","dong":"교방동","built":1987,"lat":35.21332,"lng":128.563874,"dealCount":4,"geoSrc":"esri","sizes":[{"pyeong":16.3,"area_m2":53.96,"n":2,"sale":0.83,"jeonse":0.6},{"pyeong":17.1,"area_m2":56.57,"n":1,"sale":0.9}]},{"name":"대동한마음","gu":"마산합포구","dong":"완월동","built":1992,"lat":35.194998,"lng":128.563537,"dealCount":2,"geoSrc":"esri","sizes":[{"pyeong":25.7,"area_m2":84.97,"n":2,"sale":1.31,"jeonse":1.0}]},{"name":"신월경남","gu":"마산합포구","dong":"완월동","built":1992,"lat":35.194126,"lng":128.561126,"dealCount":5,"geoSrc":"esri","sizes":[{"pyeong":18.0,"area_m2":59.48,"n":2,"sale":0.98},{"pyeong":25.0,"area_m2":82.76,"n":1,"sale":1.47},{"pyeong":59.8,"area_m2":197.66,"n":2,"sale":1.8}]},{"name":"새롬미리내아파트","gu":"마산합포구","dong":"신포동1가","built":2003,"lat":35.199817,"lng":128.571302,"dealCount":11,"geoSrc":"esri","sizes":[{"pyeong":25.7,"area_m2":84.95,"n":4,"sale":2.0,"jeonse":1.7},{"pyeong":36.1,"area_m2":119.21,"n":7,"sale":2.75,"jeonse":2.1}]},{"name":"헤븐하임","gu":"마산합포구","dong":"월남동3가","built":2014,"lat":35.184923,"lng":128.560758,"dealCount":2,"geoSrc":"esri","sizes":[{"pyeong":16.7,"area_m2":55.17,"n":1,"sale":1.35},{"pyeong":17.8,"area_m2":58.95,"n":1,"jeonse":1.3}]},{"name":"대한맨션","gu":"마산합포구","dong":"산호동","built":1985,"lat":35.219991,"lng":128.585772,"dealCount":7,"geoSrc":"esri","sizes":[{"pyeong":20.5,"area_m2":67.61,"n":3,"sale":1.15,"jeonse":0.9},{"pyeong":25.7,"area_m2":84.89,"n":4,"sale":1.4}]},{"name":"동성가든","gu":"마산합포구","dong":"자산동","built":1986,"lat":35.201049,"lng":128.558413,"dealCount":1,"geoSrc":"esri","sizes":[{"pyeong":22.7,"area_m2":75.15,"n":1,"jeonse":0.65}]},{"name":"신우희가로밀리온","gu":"마산합포구","dong":"신포동1가","built":2004,"lat":35.198239,"lng":128.571222,"dealCount":3,"geoSrc":"esri","sizes":[{"pyeong":25.7,"area_m2":84.91,"n":3,"sale":2.01}]},{"name":"정우빌라","gu":"마산합포구","dong":"상남동","built":2014,"lat":35.21426,"lng":128.571151,"dealCount":2,"geoSrc":"esri","sizes":[{"pyeong":18.0,"area_m2":59.6,"n":2,"sale":1.45}]},{"name":"월영라이프","gu":"마산합포구","dong":"월영동","built":1998,"lat":35.177032,"lng":128.554634,"dealCount":9,"geoSrc":"esri","sizes":[{"pyeong":22.2,"area_m2":73.26,"n":1,"jeonse":0.7},{"pyeong":24.0,"area_m2":79.41,"n":1,"jeonse":0.76},{"pyeong":25.6,"area_m2":84.58,"n":3,"sale":0.86,"jeonse":0.7},{"pyeong":33.5,"area_m2":110.66,"n":4,"sale":1.2}]},{"name":"국제파크","gu":"마산합포구","dong":"완월동","built":1993,"lat":35.198041,"lng":128.557851,"dealCount":3,"geoSrc":"esri","sizes":[{"pyeong":25.3,"area_m2":83.57,"n":1,"sale":1.16}]},{"name":"청구제네스","gu":"마산합포구","dong":"완월동","built":2003,"lat":35.196975,"lng":128.556643,"dealCount":11,"geoSrc":"esri","sizes":[{"pyeong":25.5,"area_m2":84.35,"n":8,"sale":1.75,"jeonse":1.5},{"pyeong":36.0,"area_m2":119.08,"n":2,"sale":2.15},{"pyeong":40.8,"area_m2":134.99,"n":1,"sale":2.3}]},{"name":"동성아파트","gu":"마산합포구","dong":"창포동1가","built":1992,"lat":35.185293,"lng":128.561875,"dealCount":14,"geoSrc":"esri","sizes":[{"pyeong":17.7,"area_m2":58.59,"n":7,"sale":1.4,"jeonse":1.2},{"pyeong":25.5,"area_m2":84.3,"n":5,"sale":1.9},{"pyeong":31.7,"area_m2":104.84,"n":1,"sale":2.3},{"pyeong":41.8,"area_m2":138.26,"n":1,"sale":2.5}]},{"name":"뜨란채빌","gu":"마산합포구","dong":"추산동","built":2017,"lat":35.205006,"lng":128.571064,"dealCount":4,"geoSrc":"esri","sizes":[{"pyeong":17.8,"area_m2":58.94,"n":4,"sale":1.0}]},{"name":"해바라기","gu":"마산합포구","dong":"월남동1가","built":1983,"lat":35.186805,"lng":128.563022,"dealCount":8,"geoSrc":"esri","sizes":[{"pyeong":18.0,"area_m2":59.34,"n":6,"sale":1.0,"jeonse":0.7},{"pyeong":20.5,"area_m2":67.62,"n":2,"sale":0.9}]},{"name":"신우빌라","gu":"마산합포구","dong":"교방동","built":1992,"lat":35.212532,"lng":128.563904,"dealCount":1,"geoSrc":"esri","sizes":[{"pyeong":24.9,"area_m2":82.22,"n":1,"jeonse":0.8}]},{"name":"신포경남","gu":"마산합포구","dong":"신포동2가","built":1988,"lat":35.200991,"lng":128.570261,"dealCount":3,"geoSrc":"esri","sizes":[{"pyeong":25.6,"area_m2":84.56,"n":3,"sale":1.2,"jeonse":1.2}]},{"name":"해창아트빌","gu":"마산합포구","dong":"월포동","built":2003,"lat":35.189978,"lng":128.56497,"dealCount":2,"geoSrc":"esri","sizes":[{"pyeong":24.8,"area_m2":82.11,"n":1,"jeonse":1.1}]},{"name":"한라해말금","gu":"마산합포구","dong":"월영동","built":2006,"lat":35.177262,"lng":128.554235,"dealCount":3,"geoSrc":"esri","sizes":[{"pyeong":25.6,"area_m2":84.74,"n":3,"sale":1.5,"jeonse":1.2}]},{"name":"무학","gu":"마산합포구","dong":"산호동","built":1979,"lat":35.207669,"lng":128.584126,"dealCount":7,"geoSrc":"esri","sizes":[{"pyeong":22.6,"area_m2":74.84,"n":1,"sale":1.35},{"pyeong":24.6,"area_m2":81.16,"n":6,"sale":1.08}]},{"name":"리코그린맨션","gu":"마산합포구","dong":"자산동","built":1991,"lat":35.206395,"lng":128.562874,"dealCount":3,"geoSrc":"esri","sizes":[{"pyeong":20.5,"area_m2":67.86,"n":1,"sale":0.4},{"pyeong":21.5,"area_m2":71.19,"n":2,"sale":0.6}]},{"name":"반월동르메이에르","gu":"마산합포구","dong":"대성동1가","built":2004,"lat":35.192574,"lng":128.561361,"dealCount":1,"geoSrc":"esri","sizes":[{"pyeong":24.4,"area_m2":80.79,"n":1,"jeonse":1.0}]},{"name":"우경씨사이드빌","gu":"마산합포구","dong":"신포동2가","built":2004,"lat":35.202577,"lng":128.573393,"dealCount":2,"geoSrc":"esri","sizes":[{"pyeong":25.3,"area_m2":83.56,"n":2,"sale":1.6}]},{"name":"창동스카이아파트","gu":"마산합포구","dong":"중성동","built":2013,"lat":35.208262,"lng":128.573677,"dealCount":2,"geoSrc":"esri","sizes":[{"pyeong":16.1,"area_m2":53.14,"n":2,"sale":1.15,"jeonse":1.3}]},{"name":"건우맨션","gu":"마산합포구","dong":"사동리","built":1996,"lat":35.110403,"lng":128.484148,"dealCount":9,"geoSrc":"esri","sizes":[{"pyeong":18.1,"area_m2":59.95,"n":8,"sale":1.08},{"pyeong":25.7,"area_m2":84.99,"n":1,"sale":1.16}]},{"name":"현대가동","gu":"마산합포구","dong":"중앙동2가","built":1985,"lat":35.193977,"lng":128.565888,"dealCount":3,"geoSrc":"esri","sizes":[{"pyeong":25.6,"area_m2":84.53,"n":3,"sale":1.39}]},{"name":"수영","gu":"마산합포구","dong":"교방동","built":1986,"lat":35.212923,"lng":128.562757,"dealCount":3,"geoSrc":"esri","sizes":[{"pyeong":15.4,"area_m2":50.94,"n":1,"sale":0.5},{"pyeong":16.6,"area_m2":54.9,"n":2,"jeonse":0.6}]},{"name":"진웅네스빌","gu":"마산합포구","dong":"산호동","built":2003,"lat":35.209777,"lng":128.582489,"dealCount":5,"geoSrc":"esri","sizes":[{"pyeong":24.1,"area_m2":79.53,"n":5,"sale":1.57}]},{"name":"대성","gu":"마산합포구","dong":"상남동","built":1980,"lat":35.213892,"lng":128.571992,"dealCount":3,"geoSrc":"esri","sizes":[{"pyeong":15.6,"area_m2":51.7,"n":1,"sale":0.5},{"pyeong":18.1,"area_m2":59.9,"n":1,"sale":0.45},{"pyeong":20.3,"area_m2":66.98,"n":1,"jeonse":0.5}]},{"name":"혜창한마음비치","gu":"마산합포구","dong":"요장리","built":1994,"lat":35.111676,"lng":128.491175,"dealCount":12,"geoSrc":"esri","sizes":[{"pyeong":17.3,"area_m2":57.06,"n":7,"sale":0.71},{"pyeong":24.9,"area_m2":82.17,"n":5,"sale":1.07}]},{"name":"일신","gu":"마산회원구","dong":"석전동","built":1985,"lat":35.23785,"lng":128.579234,"dealCount":2,"geoSrc":"esri","sizes":[{"pyeong":15.6,"area_m2":51.57,"n":2,"sale":0.68,"jeonse":0.4}]},{"name":"중리근로복지","gu":"마산회원구","dong":"상곡리","built":1993,"lat":35.243797,"lng":128.499489,"dealCount":59,"geoSrc":"esri","sizes":[{"pyeong":12.7,"area_m2":41.85,"n":43,"sale":0.47,"jeonse":0.4},{"pyeong":15.1,"area_m2":49.77,"n":16,"sale":0.67,"jeonse":0.62}]},{"name":"현대","gu":"마산회원구","dong":"삼계리","built":1998,"lat":35.233955,"lng":128.502358,"dealCount":20,"geoSrc":"esri","sizes":[{"pyeong":23.4,"area_m2":77.24,"n":7,"sale":2.46,"jeonse":1.8},{"pyeong":25.5,"area_m2":84.36,"n":4,"sale":2.16},{"pyeong":30.1,"area_m2":99.43,"n":6,"sale":2.3,"jeonse":2.2},{"pyeong":34.6,"area_m2":114.24,"n":3,"sale":2.95}]},{"name":"창원롯데캐슬센텀골드","gu":"마산회원구","dong":"양덕동","built":2023,"lat":35.22361,"lng":128.592448,"dealCount":206,"geoSrc":"esri","sizes":[{"pyeong":18.1,"area_m2":59.95,"n":50,"sale":4.5,"jeonse":3.2},{"pyeong":22.7,"area_m2":74.95,"n":23,"sale":5.4,"jeonse":3.15},{"pyeong":25.7,"area_m2":84.98,"n":124,"sale":5.75,"jeonse":3.67},{"pyeong":30.2,"area_m2":99.7,"n":9,"jeonse":4.3}]},{"name":"메트로시티2단지","gu":"마산회원구","dong":"양덕동","built":2015,"lat":35.224555,"lng":128.585365,"dealCount":255,"geoSrc":"esri","sizes":[{"pyeong":22.7,"area_m2":74.94,"n":51,"sale":5.28,"jeonse":4.2},{"pyeong":25.7,"area_m2":84.94,"n":132,"sale":6.04,"jeonse":3.9},{"pyeong":30.6,"area_m2":101.14,"n":58,"sale":7.0,"jeonse":5.0},{"pyeong":34.5,"area_m2":114.06,"n":14,"sale":8.0,"jeonse":6.0}]},{"name":"경민인터빌","gu":"마산회원구","dong":"양덕동","built":2000,"lat":35.231903,"lng":128.583819,"dealCount":4,"geoSrc":"esri","sizes":[{"pyeong":25.4,"area_m2":84.06,"n":2,"jeonse":1.5}]},{"name":"현대성우","gu":"마산회원구","dong":"호계리","built":2004,"lat":35.255041,"lng":128.519178,"dealCount":13,"geoSrc":"esri","sizes":[{"pyeong":19.9,"area_m2":65.88,"n":5,"sale":1.33,"jeonse":1.3},{"pyeong":25.7,"area_m2":85.0,"n":8,"sale":1.6}]},{"name":"대동다:숲","gu":"마산회원구","dong":"삼계리","built":1999,"lat":35.229766,"lng":128.50368,"dealCount":15,"geoSrc":"esri","sizes":[{"pyeong":23.3,"area_m2":76.99,"n":5,"sale":1.79,"jeonse":1.6},{"pyeong":25.7,"area_m2":84.96,"n":10,"sale":2.13,"jeonse":1.68}]},{"name":"숲속마을주공그린빌4단지","gu":"마산회원구","dong":"삼계리","built":2002,"lat":35.230996,"lng":128.496092,"dealCount":17,"geoSrc":"esri","sizes":[{"pyeong":17.9,"area_m2":59.26,"n":8,"sale":1.39},{"pyeong":25.6,"area_m2":84.55,"n":6,"sale":2.05,"jeonse":1.7}]},{"name":"양덕지오피아","gu":"마산회원구","dong":"양덕동","built":2007,"lat":35.229128,"lng":128.587524,"dealCount":5,"geoSrc":"esri","sizes":[{"pyeong":17.1,"area_m2":56.52,"n":3,"sale":1.3,"jeonse":1.1},{"pyeong":23.8,"area_m2":78.53,"n":2,"jeonse":1.6}]},{"name":"롯데캐슬더퍼스트","gu":"마산회원구","dong":"합성동","built":2018,"lat":35.245017,"lng":128.586881,"dealCount":164,"geoSrc":"esri","sizes":[{"pyeong":12.0,"area_m2":39.8,"n":32,"jeonse":1.28},{"pyeong":18.1,"area_m2":59.96,"n":15,"sale":4.1,"jeonse":3.3},{"pyeong":25.7,"area_m2":84.99,"n":116,"sale":4.89,"jeonse":3.8},{"pyeong":30.4,"area_m2":100.42,"n":1,"sale":5.45}]},{"name":"메트로시티","gu":"마산회원구","dong":"양덕동","built":2009,"lat":35.227488,"lng":128.58312,"dealCount":173,"geoSrc":"esri","sizes":[{"pyeong":25.7,"area_m2":84.99,"n":54,"sale":5.88,"jeonse":4.2},{"pyeong":30.6,"area_m2":101.26,"n":23,"sale":6.07,"jeonse":5.0},{"pyeong":37.6,"area_m2":124.45,"n":59,"sale":6.54,"jeonse":5.0},{"pyeong":40.7,"area_m2":134.65,"n":24,"sale":8.1,"jeonse":5.4},{"pyeong":46.4,"area_m2":153.29,"n":11,"sale":8.6,"jeonse":5.5},{"pyeong":59.0,"area_m2":195.19,"n":2,"sale":9.0}]},{"name":"한성(1344)","gu":"마산회원구","dong":"구암동","built":1984,"lat":35.2564,"lng":128.595808,"dealCount":8,"geoSrc":"esri","sizes":[{"pyeong":16.6,"area_m2":54.99,"n":8,"sale":1.0,"jeonse":0.85}]},{"name":"마산양덕동동아위드필하임","gu":"마산회원구","dong":"양덕동","built":2017,"lat":35.229591,"lng":128.581042,"dealCount":15,"geoSrc":"esri","sizes":[{"pyeong":20.4,"area_m2":67.37,"n":5,"sale":2.88},{"pyeong":20.8,"area_m2":68.69,"n":4,"sale":2.57,"jeonse":2.4},{"pyeong":23.9,"area_m2":79.01,"n":6,"sale":3.08}]},{"name":"중리백로","gu":"마산회원구","dong":"중리","built":1995,"lat":35.244167,"lng":128.505622,"dealCount":21,"geoSrc":"esri","sizes":[{"pyeong":18.1,"area_m2":59.92,"n":21,"sale":0.82,"jeonse":0.6}]},{"name":"우성","gu":"마산회원구","dong":"양덕동","built":1998,"lat":35.229026,"lng":128.578227,"dealCount":68,"geoSrc":"esri","sizes":[{"pyeong":18.1,"area_m2":59.97,"n":31,"sale":2.12,"jeonse":1.8},{"pyeong":22.7,"area_m2":74.9,"n":6,"sale":2.25},{"pyeong":25.6,"area_m2":84.72,"n":30,"sale":2.73,"jeonse":2.3},{"pyeong":37.9,"area_m2":125.4,"n":1,"jeonse":2.4}]},{"name":"창원메트로시티석전","gu":"마산회원구","dong":"석전동","built":2019,"lat":35.228306,"lng":128.572402,"dealCount":330,"geoSrc":"esri","sizes":[{"pyeong":11.7,"area_m2":38.83,"n":67,"sale":2.1,"jeonse":1.9},{"pyeong":15.6,"area_m2":51.57,"n":17,"sale":3.57},{"pyeong":18.1,"area_m2":59.68,"n":135,"sale":3.8,"jeonse":3.3},{"pyeong":21.8,"area_m2":72.18,"n":36,"sale":4.9,"jeonse":3.5},{"pyeong":25.7,"area_m2":84.94,"n":67,"sale":5.45,"jeonse":4.5},{"pyeong":30.7,"area_m2":101.59,"n":8,"sale":6.65}]},{"name":"대양","gu":"마산회원구","dong":"회원동","built":1981,"lat":35.220292,"lng":128.571466,"dealCount":5,"geoSrc":"esri","sizes":[{"pyeong":11.4,"area_m2":37.62,"n":1,"sale":0.4},{"pyeong":12.3,"area_m2":40.5,"n":1,"sale":0.36},{"pyeong":12.6,"area_m2":41.59,"n":2,"sale":0.39}]},{"name":"마산양덕4차한일타운","gu":"마산회원구","dong":"양덕동","built":2004,"lat":35.2292,"lng":128.580583,"dealCount":78,"geoSrc":"esri","sizes":[{"pyeong":21.4,"area_m2":70.78,"n":11,"sale":3.07,"jeonse":1.5},{"pyeong":25.3,"area_m2":83.68,"n":56,"sale":3.58,"jeonse":2.9},{"pyeong":35.6,"area_m2":117.56,"n":11,"sale":3.77,"jeonse":3.15}]},{"name":"한효이화맨션","gu":"마산회원구","dong":"구암동","built":1987,"lat":35.244298,"lng":128.591591,"dealCount":4,"geoSrc":"esri","sizes":[{"pyeong":21.3,"area_m2":70.33,"n":3,"sale":1.68}]},{"name":"양덕코오롱하늘채","gu":"마산회원구","dong":"양덕동","built":2016,"lat":35.227127,"lng":128.579743,"dealCount":69,"geoSrc":"esri","sizes":[{"pyeong":25.7,"area_m2":84.98,"n":63,"sale":4.82,"jeonse":4.1}]},{"name":"숲속마을(6단지)","gu":"마산회원구","dong":"삼계리","built":2002,"lat":35.228158,"lng":128.498163,"dealCount":32,"geoSrc":"esri","sizes":[{"pyeong":18.1,"area_m2":59.85,"n":18,"sale":1.5,"jeonse":1.26},{"pyeong":23.0,"area_m2":75.88,"n":4,"sale":1.5},{"pyeong":25.7,"area_m2":84.88,"n":10,"sale":1.89}]},{"name":"신성미소지움","gu":"마산회원구","dong":"양덕동","built":2003,"lat":35.233327,"lng":128.584326,"dealCount":15,"geoSrc":"esri","sizes":[{"pyeong":25.7,"area_m2":84.81,"n":13,"sale":2.3,"jeonse":2.1},{"pyeong":33.2,"area_m2":109.76,"n":2,"sale":2.9,"jeonse":2.3}]},{"name":"THE-푸른","gu":"마산회원구","dong":"삼계리","built":1998,"lat":35.235001,"lng":128.503818,"dealCount":118,"geoSrc":"esri","sizes":[{"pyeong":12.0,"area_m2":39.74,"n":18,"sale":0.8,"jeonse":0.65},{"pyeong":15.0,"area_m2":49.62,"n":49,"sale":0.96,"jeonse":0.87},{"pyeong":18.1,"area_m2":59.99,"n":51,"sale":1.08,"jeonse":1.05}]},{"name":"e-편한세상창원파크센트럴","gu":"마산회원구","dong":"회원동","built":2020,"lat":35.220425,"lng":128.569109,"dealCount":157,"geoSrc":"esri","sizes":[{"pyeong":11.8,"area_m2":38.86,"n":14,"jeonse":1.41},{"pyeong":18.1,"area_m2":59.88,"n":57,"sale":3.95,"jeonse":3.2},{"pyeong":22.1,"area_m2":72.97,"n":24,"sale":4.3,"jeonse":3.2},{"pyeong":25.7,"area_m2":84.98,"n":43,"sale":4.98,"jeonse":3.5},{"pyeong":31.2,"area_m2":103.22,"n":11,"sale":5.7,"jeonse":4.09}]},{"name":"대동","gu":"마산회원구","dong":"삼계리","built":1998,"lat":35.231552,"lng":128.501928,"dealCount":57,"geoSrc":"esri","sizes":[{"pyeong":18.1,"area_m2":59.94,"n":29,"sale":1.28,"jeonse":1.25},{"pyeong":21.4,"area_m2":70.8,"n":16,"sale":1.75,"jeonse":1.4},{"pyeong":25.7,"area_m2":84.97,"n":12,"sale":1.98,"jeonse":1.75}]},{"name":"창원두산위브더센트럴","gu":"마산회원구","dong":"합성동","built":2024,"lat":35.237936,"lng":128.587854,"dealCount":21,"geoSrc":"esri","sizes":[{"pyeong":11.9,"area_m2":39.27,"n":4,"jeonse":1.77},{"pyeong":18.1,"area_m2":59.99,"n":3,"sale":4.46},{"pyeong":25.7,"area_m2":84.98,"n":14,"sale":5.4,"jeonse":3.7}]},{"name":"코오롱하늘채2차","gu":"마산회원구","dong":"호계리","built":2005,"lat":35.263121,"lng":128.523251,"dealCount":77,"geoSrc":"esri","sizes":[{"pyeong":22.4,"area_m2":74.19,"n":17,"sale":2.3,"jeonse":2.1},{"pyeong":25.7,"area_m2":84.99,"n":31,"sale":2.35,"jeonse":2.4},{"pyeong":31.4,"area_m2":103.93,"n":17,"sale":2.9},{"pyeong":41.0,"area_m2":135.62,"n":12,"sale":3.95,"jeonse":2.75}]},{"name":"대동이미지1단지","gu":"마산회원구","dong":"삼계리","built":2003,"lat":35.222696,"lng":128.501291,"dealCount":48,"geoSrc":"esri","sizes":[{"pyeong":18.1,"area_m2":59.98,"n":9,"sale":1.3,"jeonse":1.15},{"pyeong":21.9,"area_m2":72.52,"n":6,"sale":1.68,"jeonse":1.4},{"pyeong":25.7,"area_m2":85.0,"n":33,"sale":2.05,"jeonse":1.6}]},{"name":"화성아파트","gu":"마산회원구","dong":"삼계리","built":1998,"lat":35.233755,"lng":128.49937,"dealCount":10,"geoSrc":"esri","sizes":[{"pyeong":25.7,"area_m2":84.99,"n":5,"sale":2.08,"jeonse":1.9},{"pyeong":37.7,"area_m2":124.65,"n":5,"sale":2.75}]},{"name":"크라운","gu":"마산회원구","dong":"구암동","built":1984,"lat":35.256459,"lng":128.596773,"dealCount":6,"geoSrc":"esri","sizes":[{"pyeong":16.7,"area_m2":55.32,"n":6,"sale":1.0,"jeonse":0.8}]},{"name":"삼계서진","gu":"마산회원구","dong":"상곡리","built":1997,"lat":35.241414,"lng":128.504392,"dealCount":27,"geoSrc":"esri","sizes":[{"pyeong":12.1,"area_m2":39.9,"n":26,"sale":0.55}]},{"name":"희성아트빌A","gu":"마산회원구","dong":"호계리","built":2004,"lat":35.253282,"lng":128.521966,"dealCount":5,"geoSrc":"esri","sizes":[{"pyeong":22.7,"area_m2":75.05,"n":3,"sale":0.9},{"pyeong":25.5,"area_m2":84.34,"n":2,"sale":0.95}]},{"name":"한일타운2","gu":"마산회원구","dong":"양덕동","built":1996,"lat":35.232479,"lng":128.581798,"dealCount":67,"geoSrc":"esri","sizes":[{"pyeong":18.1,"area_m2":59.99,"n":42,"sale":2.0,"jeonse":1.85},{"pyeong":25.7,"area_m2":84.96,"n":25,"sale":2.45,"jeonse":2.35}]},{"name":"은하","gu":"마산회원구","dong":"구암동","built":1980,"lat":35.248273,"lng":128.59012,"dealCount":3,"geoSrc":"esri","sizes":[{"pyeong":14.7,"area_m2":48.73,"n":3,"sale":0.75}]},{"name":"대진","gu":"마산회원구","dong":"구암동","built":1979,"lat":35.246777,"lng":128.593787,"dealCount":4,"geoSrc":"esri","sizes":[{"pyeong":15.7,"area_m2":52.03,"n":4,"sale":0.5}]},{"name":"코오롱하늘채1차아파트","gu":"마산회원구","dong":"호계리","built":2001,"lat":35.26822,"lng":128.527093,"dealCount":104,"geoSrc":"esri","sizes":[{"pyeong":18.1,"area_m2":59.95,"n":31,"sale":1.59,"jeonse":1.4},{"pyeong":21.7,"area_m2":71.89,"n":25,"sale":1.5,"jeonse":1.66},{"pyeong":25.7,"area_m2":84.97,"n":38,"sale":1.94,"jeonse":1.7},{"pyeong":31.7,"area_m2":104.64,"n":6,"sale":2.65,"jeonse":1.8},{"pyeong":38.7,"area_m2":127.86,"n":4,"sale":3.18,"jeonse":2.35}]},{"name":"일우근주맨션","gu":"마산회원구","dong":"석전동","built":1994,"lat":35.231974,"lng":128.569007,"dealCount":8,"geoSrc":"esri","sizes":[{"pyeong":18.1,"area_m2":59.67,"n":4,"sale":1.09},{"pyeong":25.6,"area_m2":84.72,"n":3,"sale":1.38},{"pyeong":36.2,"area_m2":119.66,"n":1,"jeonse":1.5}]},{"name":"송촌e'누리채아파트","gu":"마산회원구","dong":"양덕동","built":2016,"lat":35.222175,"lng":128.586758,"dealCount":8,"geoSrc":"esri","sizes":[{"pyeong":16.1,"area_m2":53.07,"n":3,"sale":1.94,"jeonse":1.3},{"pyeong":19.9,"area_m2":65.79,"n":5,"sale":2.25,"jeonse":1.7}]},{"name":"봉암서광","gu":"마산회원구","dong":"봉암동","built":2000,"lat":35.216518,"lng":128.61296,"dealCount":17,"geoSrc":"esri","sizes":[{"pyeong":18.0,"area_m2":59.34,"n":17,"sale":1.0,"jeonse":0.9}]},{"name":"한우리","gu":"마산회원구","dong":"삼계리","built":2000,"lat":35.229428,"lng":128.504167,"dealCount":65,"geoSrc":"esri","sizes":[{"pyeong":18.1,"area_m2":59.87,"n":65,"sale":0.98,"jeonse":1.0}]},{"name":"석보","gu":"마산회원구","dong":"구암동","built":1983,"lat":35.249411,"lng":128.591851,"dealCount":3,"geoSrc":"esri","sizes":[{"pyeong":13.0,"area_m2":43.06,"n":3,"sale":0.7,"jeonse":0.47}]},{"name":"숲속마을(507-1)","gu":"마산회원구","dong":"삼계리","built":2001,"lat":35.229691,"lng":128.497069,"dealCount":17,"geoSrc":"esri","sizes":[{"pyeong":23.0,"area_m2":75.95,"n":7,"sale":1.45},{"pyeong":25.5,"area_m2":84.45,"n":9,"sale":1.77,"jeonse":1.6}]},{"name":"무학","gu":"마산회원구","dong":"합성동","built":1987,"lat":35.239576,"lng":128.578937,"dealCount":38,"geoSrc":"esri","sizes":[{"pyeong":13.6,"area_m2":45.09,"n":9,"sale":0.88,"jeonse":0.65},{"pyeong":15.0,"area_m2":49.56,"n":17,"sale":1.45,"jeonse":0.6},{"pyeong":16.4,"area_m2":54.34,"n":12,"sale":1.26,"jeonse":0.55}]},{"name":"현대","gu":"마산회원구","dong":"중리","built":1992,"lat":35.250136,"lng":128.523657,"dealCount":41,"geoSrc":"esri","sizes":[{"pyeong":22.5,"area_m2":74.3,"n":14,"sale":1.06,"jeonse":0.9},{"pyeong":25.7,"area_m2":84.94,"n":26,"sale":1.3,"jeonse":1.0},{"pyeong":37.9,"area_m2":125.34,"n":1,"jeonse":1.4}]},{"name":"삼성프리텔","gu":"마산회원구","dong":"양덕동","built":2003,"lat":35.233415,"lng":128.581973,"dealCount":3,"geoSrc":"esri","sizes":[{"pyeong":13.2,"area_m2":43.6,"n":3,"sale":0.58}]},{"name":"중리2차서광","gu":"마산회원구","dong":"호계리","built":1992,"lat":35.257997,"lng":128.520864,"dealCount":20,"geoSrc":"esri","sizes":[{"pyeong":18.0,"area_m2":59.4,"n":7,"sale":0.72},{"pyeong":21.1,"area_m2":69.61,"n":8,"sale":1.19,"jeonse":0.7},{"pyeong":24.4,"area_m2":80.77,"n":1,"sale":1.05},{"pyeong":24.6,"area_m2":81.19,"n":4,"sale":1.04}]},{"name":"거북","gu":"마산회원구","dong":"양덕동","built":1983,"lat":35.236184,"lng":128.586215,"dealCount":4,"geoSrc":"esri","sizes":[{"pyeong":14.7,"area_m2":48.6,"n":4,"sale":0.72,"jeonse":0.65}]},{"name":"동신2","gu":"마산회원구","dong":"중리","built":1996,"lat":35.250973,"lng":128.51166,"dealCount":21,"geoSrc":"esri","sizes":[{"pyeong":18.1,"area_m2":59.87,"n":8,"sale":1.27,"jeonse":1.0},{"pyeong":25.7,"area_m2":84.99,"n":13,"sale":1.5,"jeonse":1.3}]},{"name":"삼성버킹궁","gu":"마산회원구","dong":"양덕동","built":2002,"lat":35.224402,"lng":128.586742,"dealCount":16,"geoSrc":"esri","sizes":[{"pyeong":25.7,"area_m2":84.81,"n":15,"sale":2.08,"jeonse":1.6}]},{"name":"회원주공","gu":"마산회원구","dong":"회원동","built":2002,"lat":35.217246,"lng":128.559591,"dealCount":9,"geoSrc":"esri","sizes":[{"pyeong":18.1,"area_m2":59.89,"n":4,"sale":1.03,"jeonse":1.0},{"pyeong":25.7,"area_m2":84.84,"n":5,"sale":1.67,"jeonse":1.4}]},{"name":"드림타워","gu":"마산회원구","dong":"양덕동","built":2017,"lat":35.221917,"lng":128.587935,"dealCount":6,"geoSrc":"esri","sizes":[{"pyeong":20.6,"area_m2":68.21,"n":2,"sale":1.48},{"pyeong":22.1,"area_m2":73.1,"n":2,"sale":1.54},{"pyeong":24.0,"area_m2":79.38,"n":2,"sale":1.75}]},{"name":"신우주상복합","gu":"마산회원구","dong":"석전동","built":2002,"lat":35.232619,"lng":128.579197,"dealCount":5,"geoSrc":"esri","sizes":[{"pyeong":25.7,"area_m2":84.88,"n":5,"sale":1.78}]},{"name":"백조","gu":"마산회원구","dong":"합성동","built":1978,"lat":35.242585,"lng":128.58907,"dealCount":2,"geoSrc":"esri","sizes":[{"pyeong":18.2,"area_m2":60.26,"n":1,"sale":0.8}]},{"name":"동남타운","gu":"마산회원구","dong":"상곡리","built":1996,"lat":35.24211,"lng":128.503722,"dealCount":3,"geoSrc":"esri","sizes":[{"pyeong":18.1,"area_m2":59.98,"n":3,"sale":0.9}]},{"name":"보라맨션","gu":"마산회원구","dong":"호계리","built":1992,"lat":35.258192,"lng":128.520252,"dealCount":10,"geoSrc":"esri","sizes":[{"pyeong":18.0,"area_m2":59.41,"n":10,"sale":0.58,"jeonse":0.6}]},{"name":"화인태양","gu":"마산회원구","dong":"호계리","built":1991,"lat":35.268736,"lng":128.52439,"dealCount":8,"geoSrc":"esri","sizes":[{"pyeong":17.7,"area_m2":58.59,"n":3,"jeonse":0.63},{"pyeong":20.5,"area_m2":67.83,"n":2,"sale":0.82},{"pyeong":22.3,"area_m2":73.83,"n":2,"sale":0.85},{"pyeong":25.5,"area_m2":84.27,"n":1,"sale":1.1}]},{"name":"세한그린파크","gu":"마산회원구","dong":"호계리","built":1996,"lat":35.256843,"lng":128.519875,"dealCount":6,"geoSrc":"esri","sizes":[{"pyeong":18.1,"area_m2":59.99,"n":4,"sale":0.7,"jeonse":0.5},{"pyeong":25.7,"area_m2":84.99,"n":2,"sale":0.87}]},{"name":"삼성메르빌","gu":"마산회원구","dong":"회원동","built":2004,"lat":35.218539,"lng":128.570207,"dealCount":7,"geoSrc":"esri","sizes":[{"pyeong":25.6,"area_m2":84.66,"n":7,"sale":2.15}]},{"name":"한효","gu":"마산회원구","dong":"회원동","built":1994,"lat":35.217714,"lng":128.571136,"dealCount":10,"geoSrc":"esri","sizes":[{"pyeong":25.7,"area_m2":84.89,"n":5,"sale":2.38},{"pyeong":37.5,"area_m2":124.03,"n":4,"sale":2.5,"jeonse":2.0},{"pyeong":43.3,"area_m2":143.02,"n":1,"sale":2.47}]},{"name":"동신1","gu":"마산회원구","dong":"중리","built":1994,"lat":35.250117,"lng":128.511141,"dealCount":15,"geoSrc":"esri","sizes":[{"pyeong":28.2,"area_m2":93.28,"n":9,"sale":1.95,"jeonse":1.3},{"pyeong":32.0,"area_m2":105.78,"n":4,"sale":1.9},{"pyeong":35.4,"area_m2":117.12,"n":2,"sale":2.04,"jeonse":1.5}]},{"name":"가고파","gu":"마산회원구","dong":"상곡리","built":1993,"lat":35.242873,"lng":128.501148,"dealCount":14,"geoSrc":"esri","sizes":[{"pyeong":13.0,"area_m2":43.1,"n":8,"sale":0.5},{"pyeong":15.1,"area_m2":49.96,"n":6,"sale":0.69,"jeonse":0.54}]},{"name":"시영장미","gu":"마산회원구","dong":"중리","built":1992,"lat":35.242791,"lng":128.505437,"dealCount":28,"geoSrc":"esri","sizes":[{"pyeong":14.4,"area_m2":47.61,"n":28,"sale":0.67,"jeonse":0.5}]},{"name":"태양","gu":"마산회원구","dong":"양덕동","built":1985,"lat":35.235302,"lng":128.583665,"dealCount":4,"geoSrc":"esri","sizes":[{"pyeong":19.2,"area_m2":63.54,"n":3,"sale":0.75}]},{"name":"한우리2","gu":"마산회원구","dong":"삼계리","built":2001,"lat":35.227307,"lng":128.504342,"dealCount":22,"geoSrc":"esri","sizes":[{"pyeong":18.1,"area_m2":59.87,"n":22,"sale":1.15,"jeonse":0.9}]},{"name":"태화","gu":"마산회원구","dong":"구암동","built":1982,"lat":35.244334,"lng":128.590288,"dealCount":2,"geoSrc":"esri","sizes":[{"pyeong":14.9,"area_m2":49.26,"n":1,"jeonse":0.55}]},{"name":"수피아","gu":"마산회원구","dong":"양덕동","built":2012,"lat":35.221979,"lng":128.588405,"dealCount":6,"geoSrc":"esri","sizes":[{"pyeong":13.3,"area_m2":43.9,"n":2,"jeonse":0.8},{"pyeong":14.0,"area_m2":46.33,"n":3,"sale":1.07}]},{"name":"국제한마음","gu":"마산회원구","dong":"호계리","built":1992,"lat":35.264463,"lng":128.521901,"dealCount":30,"geoSrc":"esri","sizes":[{"pyeong":18.5,"area_m2":61.05,"n":1,"jeonse":0.61},{"pyeong":19.4,"area_m2":64.21,"n":6,"jeonse":0.3},{"pyeong":19.6,"area_m2":64.87,"n":5,"sale":0.85},{"pyeong":21.6,"area_m2":71.38,"n":12,"sale":0.91},{"pyeong":25.7,"area_m2":84.96,"n":5,"sale":1.2},{"pyeong":27.8,"area_m2":91.74,"n":1,"sale":1.2}]},{"name":"한일타운","gu":"마산회원구","dong":"양덕동","built":1994,"lat":35.231308,"lng":128.579115,"dealCount":52,"geoSrc":"esri","sizes":[{"pyeong":18.1,"area_m2":59.94,"n":27,"sale":1.65,"jeonse":1.5},{"pyeong":25.7,"area_m2":84.86,"n":15,"sale":2.94,"jeonse":2.3},{"pyeong":39.8,"area_m2":131.44,"n":10,"sale":3.6,"jeonse":3.0}]},{"name":"대림하이빌","gu":"마산회원구","dong":"양덕동","built":2002,"lat":35.225084,"lng":128.588886,"dealCount":42,"geoSrc":"esri","sizes":[{"pyeong":22.6,"area_m2":74.66,"n":10,"sale":2.14,"jeonse":1.9},{"pyeong":25.7,"area_m2":84.94,"n":26,"sale":2.45,"jeonse":2.0},{"pyeong":36.5,"area_m2":120.8,"n":6,"sale":2.85,"jeonse":2.45}]},{"name":"마산삼계주공3단지","gu":"마산회원구","dong":"삼계리","built":2001,"lat":35.232071,"lng":128.496292,"dealCount":27,"geoSrc":"esri","sizes":[{"pyeong":15.0,"area_m2":49.71,"n":27,"sale":1.0,"jeonse":0.75}]},{"name":"장미","gu":"마산회원구","dong":"양덕동","built":1983,"lat":35.229047,"lng":128.586165,"dealCount":4,"geoSrc":"esri","sizes":[{"pyeong":15.0,"area_m2":49.62,"n":3,"sale":0.69,"jeonse":0.6}]},{"name":"구암대동","gu":"마산회원구","dong":"구암동","built":1998,"lat":35.2497,"lng":128.600614,"dealCount":35,"geoSrc":"esri","sizes":[{"pyeong":17.8,"area_m2":58.87,"n":18,"sale":1.6,"jeonse":1.45},{"pyeong":25.7,"area_m2":84.99,"n":17,"sale":1.95,"jeonse":1.8}]},{"name":"한일유엔아이","gu":"마산회원구","dong":"원계리","built":2005,"lat":35.231812,"lng":128.506046,"dealCount":4,"geoSrc":"esri","sizes":[{"pyeong":25.6,"area_m2":84.49,"n":4,"sale":1.85,"jeonse":1.8}]},{"name":"대동다:숲","gu":"마산회원구","dong":"원계리","built":2006,"lat":35.229616,"lng":128.506394,"dealCount":16,"geoSrc":"esri","sizes":[{"pyeong":18.0,"area_m2":59.65,"n":7,"sale":1.46,"jeonse":1.35},{"pyeong":25.7,"area_m2":84.98,"n":9,"sale":2.17}]},{"name":"구암대동2","gu":"마산회원구","dong":"구암동","built":2000,"lat":35.245936,"lng":128.593243,"dealCount":11,"geoSrc":"esri","sizes":[{"pyeong":18.1,"area_m2":59.92,"n":6,"sale":1.85,"jeonse":1.45},{"pyeong":25.6,"area_m2":84.78,"n":5,"sale":1.97}]},{"name":"한일3","gu":"마산회원구","dong":"양덕동","built":2003,"lat":35.226153,"lng":128.574852,"dealCount":41,"geoSrc":"esri","sizes":[{"pyeong":18.1,"area_m2":59.93,"n":14,"sale":2.22,"jeonse":1.86},{"pyeong":25.7,"area_m2":84.93,"n":27,"sale":2.3,"jeonse":2.34}]},{"name":"대동이미지2단지","gu":"마산회원구","dong":"삼계리","built":2003,"lat":35.223319,"lng":128.50345,"dealCount":32,"geoSrc":"esri","sizes":[{"pyeong":18.1,"area_m2":59.98,"n":16,"sale":1.34,"jeonse":1.1},{"pyeong":21.9,"area_m2":72.52,"n":6,"sale":1.45,"jeonse":1.4},{"pyeong":25.7,"area_m2":84.93,"n":10,"sale":1.85,"jeonse":1.62}]},{"name":"덕천파크","gu":"마산회원구","dong":"회성동","built":1990,"lat":35.229897,"lng":128.565606,"dealCount":3,"geoSrc":"esri","sizes":[{"pyeong":28.9,"area_m2":95.6,"n":2,"sale":1.1,"jeonse":0.5}]},{"name":"한일사원","gu":"마산회원구","dong":"양덕동","built":1980,"lat":35.227926,"lng":128.585979,"dealCount":2,"geoSrc":"esri","sizes":[{"pyeong":23.1,"area_m2":76.36,"n":1,"jeonse":1.1},{"pyeong":24.8,"area_m2":81.92,"n":1,"jeonse":1.1}]},{"name":"옥산","gu":"마산회원구","dong":"양덕동","built":1980,"lat":35.222467,"lng":128.588122,"dealCount":2,"geoSrc":"esri","sizes":[{"pyeong":16.0,"area_m2":52.99,"n":1,"jeonse":0.5}]},{"name":"배진","gu":"마산회원구","dong":"구암동","built":1992,"lat":35.249619,"lng":128.603441,"dealCount":3,"geoSrc":"esri","sizes":[{"pyeong":16.6,"area_m2":54.98,"n":2,"sale":0.35},{"pyeong":18.7,"area_m2":61.94,"n":1,"sale":0.62}]},{"name":"정우맨션","gu":"마산회원구","dong":"양덕동","built":1979,"lat":35.226136,"lng":128.588544,"dealCount":8,"geoSrc":"esri","sizes":[{"pyeong":25.3,"area_m2":83.74,"n":8,"sale":1.0,"jeonse":1.25}]},{"name":"한효국화","gu":"마산회원구","dong":"회성동","built":1984,"lat":35.23363,"lng":128.557646,"dealCount":6,"geoSrc":"esri","sizes":[{"pyeong":19.2,"area_m2":63.36,"n":2,"sale":0.75}]},{"name":"일산","gu":"마산회원구","dong":"삼계리","built":1998,"lat":35.232616,"lng":128.498382,"dealCount":3,"geoSrc":"esri","sizes":[{"pyeong":23.2,"area_m2":76.77,"n":2,"sale":1.02,"jeonse":1.0},{"pyeong":40.6,"area_m2":134.19,"n":1,"sale":1.5}]},{"name":"연화맨션","gu":"마산회원구","dong":"양덕동","built":1988,"lat":35.231194,"lng":128.582856,"dealCount":2,"geoSrc":"esri","sizes":[{"pyeong":17.9,"area_m2":59.12,"n":2,"sale":1.29}]},{"name":"리치","gu":"마산회원구","dong":"석전동","built":2015,"lat":35.233297,"lng":128.576457,"dealCount":1,"geoSrc":"esri","sizes":[{"pyeong":24.4,"area_m2":80.57,"n":1,"jeonse":1.9}]},{"name":"배진","gu":"마산회원구","dong":"양덕동","built":1998,"lat":35.222448,"lng":128.586155,"dealCount":3,"geoSrc":"esri","sizes":[{"pyeong":25.5,"area_m2":84.45,"n":3,"jeonse":1.1}]},{"name":"삼우","gu":"마산회원구","dong":"구암동","built":1979,"lat":35.249962,"lng":128.601028,"dealCount":4,"geoSrc":"esri","sizes":[{"pyeong":11.3,"area_m2":37.49,"n":4,"sale":0.37}]},{"name":"중앙캐스빌","gu":"마산회원구","dong":"회원동","built":2002,"lat":35.218779,"lng":128.572076,"dealCount":2,"geoSrc":"esri","sizes":[{"pyeong":25.7,"area_m2":84.93,"n":2,"sale":1.4,"jeonse":0.4}]},{"name":"세화A.P.T","gu":"마산회원구","dong":"구암동","built":1980,"lat":35.248884,"lng":128.592029,"dealCount":3,"geoSrc":"esri","sizes":[{"pyeong":15.0,"area_m2":49.45,"n":2,"sale":0.63,"jeonse":0.4}]},{"name":"부영국민주택","gu":"마산회원구","dong":"석전동","built":1984,"lat":35.237612,"lng":128.579132,"dealCount":3,"geoSrc":"esri","sizes":[{"pyeong":15.0,"area_m2":49.68,"n":2,"sale":1.05,"jeonse":0.8}]},{"name":"신우","gu":"마산회원구","dong":"구암동","built":2001,"lat":35.252669,"lng":128.602175,"dealCount":2,"geoSrc":"esri","sizes":[{"pyeong":17.9,"area_m2":59.15,"n":2,"sale":1.38,"jeonse":1.1}]},{"name":"경남아파트2동3동","gu":"마산회원구","dong":"양덕동","built":1992,"lat":35.23458,"lng":128.590781,"dealCount":6,"geoSrc":"esri","sizes":[{"pyeong":18.0,"area_m2":59.48,"n":2,"sale":1.23},{"pyeong":25.5,"area_m2":84.14,"n":4,"sale":1.34}]},{"name":"타워맨션","gu":"마산회원구","dong":"양덕동","built":1979,"lat":35.229648,"lng":128.586533,"dealCount":2,"geoSrc":"esri","sizes":[{"pyeong":24.5,"area_m2":80.99,"n":2,"sale":1.08,"jeonse":1.2}]},{"name":"다담웰빙필","gu":"마산회원구","dong":"석전동","built":2006,"lat":35.236862,"lng":128.579506,"dealCount":3,"geoSrc":"esri","sizes":[{"pyeong":25.7,"area_m2":84.8,"n":3,"sale":1.58}]},{"name":"합성동림맨션가","gu":"마산회원구","dong":"합성동","built":1984,"lat":35.238748,"lng":128.586704,"dealCount":2,"geoSrc":"esri","sizes":[{"pyeong":19.1,"area_m2":63.0,"n":2,"sale":0.95}]},{"name":"동도센트리움","gu":"마산회원구","dong":"석전동","built":2013,"lat":35.233668,"lng":128.579922,"dealCount":8,"geoSrc":"esri","sizes":[{"pyeong":23.2,"area_m2":76.85,"n":2,"sale":2.75,"jeonse":2.4},{"pyeong":25.6,"area_m2":84.57,"n":5,"sale":2.98,"jeonse":2.5},{"pyeong":32.8,"area_m2":108.35,"n":1,"sale":3.8}]},{"name":"제일","gu":"마산회원구","dong":"석전동","built":1980,"lat":35.234026,"lng":128.576612,"dealCount":3,"geoSrc":"esri","sizes":[{"pyeong":17.2,"area_m2":57.02,"n":1,"sale":0.63},{"pyeong":19.8,"area_m2":65.45,"n":2,"sale":0.57}]},{"name":"대화빌아트","gu":"마산회원구","dong":"합성동","built":2001,"lat":35.23662,"lng":128.588358,"dealCount":2,"geoSrc":"esri","sizes":[{"pyeong":25.4,"area_m2":83.99,"n":1,"sale":1.35}]},{"name":"대호","gu":"마산회원구","dong":"회성동","built":1990,"lat":35.232373,"lng":128.559886,"dealCount":4,"geoSrc":"esri","sizes":[{"pyeong":11.5,"area_m2":37.92,"n":1,"sale":0.35},{"pyeong":13.4,"area_m2":44.4,"n":2,"sale":0.45}]},{"name":"경남(1336)","gu":"마산회원구","dong":"구암동","built":1986,"lat":35.257507,"lng":128.597065,"dealCount":11,"geoSrc":"esri","sizes":[{"pyeong":15.9,"area_m2":52.42,"n":11,"sale":1.17,"jeonse":0.95}]},{"name":"한주","gu":"마산회원구","dong":"중리","built":1992,"lat":35.248536,"lng":128.520671,"dealCount":4,"geoSrc":"esri","sizes":[{"pyeong":17.9,"area_m2":59.25,"n":3,"sale":0.6},{"pyeong":25.6,"area_m2":84.69,"n":1,"sale":0.74}]},{"name":"대상","gu":"마산회원구","dong":"양덕동","built":1999,"lat":35.235964,"lng":128.583185,"dealCount":9,"geoSrc":"esri","sizes":[{"pyeong":12.9,"area_m2":42.7,"n":4,"sale":1.1},{"pyeong":18.1,"area_m2":59.87,"n":2,"sale":1.55},{"pyeong":25.6,"area_m2":84.5,"n":3,"sale":1.9}]},{"name":"남광B동","gu":"마산회원구","dong":"회원동","built":1980,"lat":35.219206,"lng":128.57577,"dealCount":3,"geoSrc":"esri","sizes":[{"pyeong":15.4,"area_m2":50.78,"n":3,"sale":0.65,"jeonse":0.5}]},{"name":"일우","gu":"마산회원구","dong":"석전동","built":1992,"lat":35.226452,"lng":128.570942,"dealCount":13,"geoSrc":"esri","sizes":[{"pyeong":25.7,"area_m2":84.98,"n":13,"sale":1.85}]},{"name":"이미지피렌체","gu":"마산회원구","dong":"석전동","built":2004,"lat":35.226836,"lng":128.574624,"dealCount":9,"geoSrc":"esri","sizes":[{"pyeong":25.7,"area_m2":84.94,"n":9,"sale":1.94,"jeonse":2.4}]},{"name":"고려화이트빌","gu":"마산회원구","dong":"회원동","built":2004,"lat":35.223135,"lng":128.570906,"dealCount":3,"geoSrc":"esri","sizes":[{"pyeong":24.6,"area_m2":81.17,"n":3,"sale":1.69,"jeonse":1.25}]},{"name":"소라1","gu":"마산회원구","dong":"합성동","built":1979,"lat":35.242387,"lng":128.588359,"dealCount":3,"geoSrc":"esri","sizes":[{"pyeong":13.5,"area_m2":44.53,"n":3,"sale":0.46}]},{"name":"경남(1335)","gu":"마산회원구","dong":"구암동","built":1985,"lat":35.257173,"lng":128.597889,"dealCount":6,"geoSrc":"esri","sizes":[{"pyeong":14.5,"area_m2":48.02,"n":6,"sale":1.02,"jeonse":0.84}]},{"name":"라임하우스2차","gu":"마산회원구","dong":"삼계리","built":2016,"lat":35.22065,"lng":128.500926,"dealCount":4,"geoSrc":"esri","sizes":[{"pyeong":21.1,"area_m2":69.65,"n":3,"sale":1.58}]},{"name":"건우만복","gu":"마산회원구","dong":"석전동","built":1993,"lat":35.225009,"lng":128.569781,"dealCount":2,"geoSrc":"esri","sizes":[{"pyeong":25.4,"area_m2":84.08,"n":2,"sale":0.74,"jeonse":0.75}]},{"name":"동명빌라","gu":"마산회원구","dong":"호계리","built":2001,"lat":35.256486,"lng":128.519915,"dealCount":1,"geoSrc":"esri","sizes":[{"pyeong":25.7,"area_m2":84.9,"n":1,"jeonse":1.2}]},{"name":"한효코스모스","gu":"마산회원구","dong":"양덕동","built":1983,"lat":35.236685,"lng":128.58625,"dealCount":5,"geoSrc":"esri","sizes":[{"pyeong":23.6,"area_m2":77.94,"n":1,"sale":1.1},{"pyeong":25.2,"area_m2":83.34,"n":2,"sale":1.53}]},{"name":"유신","gu":"마산회원구","dong":"구암동","built":1979,"lat":35.247226,"lng":128.593547,"dealCount":3,"geoSrc":"esri","sizes":[{"pyeong":16.4,"area_m2":54.12,"n":1,"sale":0.9}]},{"name":"양덕이담채아파트","gu":"마산회원구","dong":"양덕동","built":2019,"lat":35.223537,"lng":128.586908,"dealCount":5,"geoSrc":"esri","sizes":[{"pyeong":15.3,"area_m2":50.64,"n":5,"sale":2.2,"jeonse":1.8}]},{"name":"서광빌라맨션","gu":"마산회원구","dong":"양덕동","built":1986,"lat":35.234908,"lng":128.583614,"dealCount":3,"geoSrc":"esri","sizes":[{"pyeong":24.1,"area_m2":79.8,"n":3,"sale":0.89,"jeonse":0.7}]},{"name":"세일로얄파크","gu":"마산회원구","dong":"호계리","built":2001,"lat":35.265653,"lng":128.518785,"dealCount":1,"geoSrc":"esri","sizes":[{"pyeong":25.5,"area_m2":84.44,"n":1,"jeonse":0.8}]},{"name":"한우","gu":"마산회원구","dong":"구암동","built":1985,"lat":35.258013,"lng":128.597143,"dealCount":4,"geoSrc":"esri","sizes":[{"pyeong":13.8,"area_m2":45.64,"n":3,"sale":0.94},{"pyeong":17.5,"area_m2":57.75,"n":1,"sale":1.15}]},{"name":"킹스타운","gu":"마산회원구","dong":"양덕동","built":2015,"lat":35.222072,"lng":128.58696,"dealCount":3,"geoSrc":"esri","sizes":[{"pyeong":24.4,"area_m2":80.78,"n":3,"sale":2.06,"jeonse":1.48}]},{"name":"무학","gu":"성산구","dong":"용호동","built":1987,"lat":35.235481,"lng":128.676708,"dealCount":219,"geoSrc":"esri","sizes":[{"pyeong":15.3,"area_m2":50.48,"n":43,"sale":4.15,"jeonse":1.3},{"pyeong":17.1,"area_m2":56.43,"n":176,"sale":4.48,"jeonse":1.2}]},{"name":"용지더샵레이크파크","gu":"성산구","dong":"용호동","built":2017,"lat":35.232567,"lng":128.674596,"dealCount":247,"geoSrc":"esri","sizes":[{"pyeong":18.1,"area_m2":60.0,"n":100,"sale":8.03,"jeonse":3.22},{"pyeong":25.6,"area_m2":84.47,"n":110,"sale":11.35,"jeonse":6.3},{"pyeong":30.8,"area_m2":101.9,"n":25,"sale":13.57,"jeonse":3.25},{"pyeong":36.1,"area_m2":119.24,"n":12,"sale":15.65,"jeonse":9.8}]},{"name":"포레나대원","gu":"성산구","dong":"대원동","built":2018,"lat":35.234838,"lng":128.649955,"dealCount":258,"geoSrc":"esri","sizes":[{"pyeong":17.9,"area_m2":59.06,"n":88,"sale":6.25,"jeonse":4.1},{"pyeong":20.6,"area_m2":68.22,"n":50,"sale":6.5,"jeonse":3.99},{"pyeong":25.5,"area_m2":84.28,"n":26,"sale":7.3,"jeonse":4.1},{"pyeong":25.5,"area_m2":84.41,"n":86,"sale":7.0,"jeonse":4.9},{"pyeong":32.7,"area_m2":108.26,"n":8,"sale":8.25,"jeonse":5.1}]},{"name":"노블파크","gu":"성산구","dong":"반림동","built":2007,"lat":35.236854,"lng":128.667533,"dealCount":366,"geoSrc":"esri","sizes":[{"pyeong":15.7,"area_m2":51.86,"n":9,"sale":3.95,"jeonse":2.6},{"pyeong":18.1,"area_m2":59.98,"n":33,"sale":5.25,"jeonse":3.85},{"pyeong":20.1,"area_m2":66.33,"n":1,"sale":4.0},{"pyeong":23.0,"area_m2":75.98,"n":99,"sale":5.75,"jeonse":3.6},{"pyeong":25.7,"area_m2":84.99,"n":179,"sale":5.89,"jeonse":4.5},{"pyeong":30.8,"area_m2":101.93,"n":20,"sale":7.1,"jeonse":4.6},{"pyeong":39.1,"area_m2":129.4,"n":20,"sale":7.6,"jeonse":6.2},{"pyeong":45.0,"area_m2":148.66,"n":5,"sale":7.8,"jeonse":5.0}]},{"name":"까치2차","gu":"성산구","dong":"반지동","built":1991,"lat":35.245354,"lng":128.666737,"dealCount":44,"geoSrc":"esri","sizes":[{"pyeong":16.4,"area_m2":54.09,"n":44,"sale":1.49,"jeonse":1.3}]},{"name":"대방동성","gu":"성산구","dong":"대방동","built":1996,"lat":35.20409,"lng":128.706949,"dealCount":63,"geoSrc":"esri","sizes":[{"pyeong":18.2,"area_m2":60.0,"n":41,"sale":2.45,"jeonse":2.05},{"pyeong":25.7,"area_m2":84.97,"n":15,"sale":3.25,"jeonse":2.8},{"pyeong":30.8,"area_m2":101.85,"n":7,"sale":3.1,"jeonse":2.85}]},{"name":"동성","gu":"성산구","dong":"사파동","built":1992,"lat":35.219898,"lng":128.703888,"dealCount":277,"geoSrc":"esri","sizes":[{"pyeong":15.0,"area_m2":49.5,"n":184,"sale":1.76,"jeonse":1.25},{"pyeong":18.1,"area_m2":59.92,"n":54,"sale":2.34,"jeonse":1.89},{"pyeong":25.6,"area_m2":84.71,"n":33,"sale":3.08,"jeonse":2.8},{"pyeong":40.4,"area_m2":133.56,"n":6,"sale":3.28}]},{"name":"대방그린빌","gu":"성산구","dong":"대방동","built":1996,"lat":35.205094,"lng":128.71134,"dealCount":195,"geoSrc":"esri","sizes":[{"pyeong":12.0,"area_m2":39.72,"n":127,"sale":1.33,"jeonse":1.05},{"pyeong":15.1,"area_m2":49.87,"n":68,"sale":1.49,"jeonse":1.21}]},{"name":"대동황토방","gu":"성산구","dong":"대방동","built":2001,"lat":35.208075,"lng":128.71004,"dealCount":58,"geoSrc":"esri","sizes":[{"pyeong":17.9,"area_m2":59.21,"n":30,"sale":2.7,"jeonse":2.45},{"pyeong":25.4,"area_m2":84.13,"n":21,"sale":3.69,"jeonse":3.0},{"pyeong":34.8,"area_m2":114.97,"n":7,"sale":4.15,"jeonse":3.6}]},{"name":"남산효성해링턴플레이스","gu":"성산구","dong":"남산동","built":2018,"lat":35.200032,"lng":128.699698,"dealCount":81,"geoSrc":"esri","sizes":[{"pyeong":18.1,"area_m2":59.86,"n":47,"sale":2.62,"jeonse":2.27},{"pyeong":24.0,"area_m2":79.37,"n":21,"sale":3.1,"jeonse":2.65},{"pyeong":25.7,"area_m2":84.9,"n":13,"sale":3.28}]},{"name":"현대2차","gu":"성산구","dong":"반림동","built":1989,"lat":35.236904,"lng":128.674944,"dealCount":216,"geoSrc":"esri","sizes":[{"pyeong":13.4,"area_m2":44.24,"n":38,"sale":2.46,"jeonse":1.3},{"pyeong":21.1,"area_m2":69.84,"n":91,"sale":4.25,"jeonse":2.1},{"pyeong":25.6,"area_m2":84.78,"n":81,"sale":5.32,"jeonse":2.7},{"pyeong":40.1,"area_m2":132.46,"n":6,"sale":6.25,"jeonse":4.0}]},{"name":"럭키","gu":"성산구","dong":"반림동","built":1989,"lat":35.239045,"lng":128.66917,"dealCount":234,"geoSrc":"esri","sizes":[{"pyeong":15.0,"area_m2":49.48,"n":69,"sale":1.6,"jeonse":1.0},{"pyeong":17.9,"area_m2":59.22,"n":35,"sale":2.9,"jeonse":1.4},{"pyeong":23.1,"area_m2":76.35,"n":65,"sale":3.8,"jeonse":2.2},{"pyeong":25.7,"area_m2":84.87,"n":65,"sale":4.15,"jeonse":2.65}]},{"name":"대동","gu":"성산구","dong":"대방동","built":1992,"lat":35.212143,"lng":128.709346,"dealCount":282,"geoSrc":"esri","sizes":[{"pyeong":15.1,"area_m2":49.94,"n":189,"sale":1.3,"jeonse":1.25},{"pyeong":18.1,"area_m2":59.99,"n":56,"sale":1.75,"jeonse":1.7},{"pyeong":25.7,"area_m2":84.93,"n":34,"sale":2.69,"jeonse":2.53},{"pyeong":38.2,"area_m2":126.36,"n":3,"sale":3.9}]},{"name":"용지아이파크","gu":"성산구","dong":"용호동","built":2017,"lat":35.229669,"lng":128.677524,"dealCount":230,"geoSrc":"esri","sizes":[{"pyeong":18.0,"area_m2":59.46,"n":81,"sale":7.3,"jeonse":2.98},{"pyeong":25.6,"area_m2":84.73,"n":110,"sale":11.1,"jeonse":6.6},{"pyeong":30.3,"area_m2":100.19,"n":17,"sale":12.3,"jeonse":7.5},{"pyeong":34.7,"area_m2":114.81,"n":14,"sale":13.0,"jeonse":9.0},{"pyeong":38.5,"area_m2":127.37,"n":8,"sale":16.4,"jeonse":8.9}]},{"name":"성산반도유보라아이비파크","gu":"성산구","dong":"사파정동","built":2022,"lat":35.218123,"lng":128.70966,"dealCount":198,"geoSrc":"esri","sizes":[{"pyeong":17.2,"area_m2":56.92,"n":58,"sale":3.92,"jeonse":3.2},{"pyeong":19.4,"area_m2":64.25,"n":16,"sale":5.43,"jeonse":3.9},{"pyeong":19.6,"area_m2":64.77,"n":35,"sale":5.2,"jeonse":3.7},{"pyeong":23.9,"area_m2":78.95,"n":85,"sale":6.2,"jeonse":4.08},{"pyeong":26.1,"area_m2":86.41,"n":4,"sale":9.2,"jeonse":5.85}]},{"name":"은아","gu":"성산구","dong":"가음동","built":1987,"lat":35.207221,"lng":128.693998,"dealCount":103,"geoSrc":"esri","sizes":[{"pyeong":15.1,"area_m2":49.83,"n":103,"sale":2.5,"jeonse":0.8}]},{"name":"삼익","gu":"성산구","dong":"사파동","built":1988,"lat":35.218713,"lng":128.694721,"dealCount":154,"geoSrc":"esri","sizes":[{"pyeong":12.1,"area_m2":39.93,"n":38,"sale":3.0,"jeonse":1.0},{"pyeong":12.7,"area_m2":41.95,"n":3,"sale":2.3,"jeonse":1.2},{"pyeong":15.1,"area_m2":49.76,"n":29,"sale":3.7,"jeonse":1.1},{"pyeong":18.1,"area_m2":59.96,"n":45,"sale":4.64,"jeonse":1.8},{"pyeong":20.8,"area_m2":68.62,"n":23,"sale":5.3,"jeonse":1.9},{"pyeong":24.1,"area_m2":79.71,"n":14,"sale":6.17,"jeonse":1.8},{"pyeong":34.8,"area_m2":114.93,"n":2,"jeonse":3.0}]},{"name":"은아","gu":"성산구","dong":"신월동","built":1989,"lat":35.224707,"lng":128.686216,"dealCount":256,"geoSrc":"esri","sizes":[{"pyeong":18.3,"area_m2":60.38,"n":57,"sale":5.4,"jeonse":1.0},{"pyeong":22.4,"area_m2":74.17,"n":34,"sale":6.06,"jeonse":1.0},{"pyeong":24.1,"area_m2":79.8,"n":42,"sale":7.0,"jeonse":1.2},{"pyeong":25.5,"area_m2":84.45,"n":89,"sale":7.8,"jeonse":2.0},{"pyeong":33.8,"area_m2":111.61,"n":24,"sale":9.6,"jeonse":1.9},{"pyeong":40.6,"area_m2":134.12,"n":8,"sale":9.8,"jeonse":2.2}]},{"name":"성원남산3차","gu":"성산구","dong":"대방동","built":1992,"lat":35.215087,"lng":128.707105,"dealCount":336,"geoSrc":"esri","sizes":[{"pyeong":15.0,"area_m2":49.68,"n":241,"sale":1.0,"jeonse":1.17},{"pyeong":18.0,"area_m2":59.34,"n":60,"sale":1.64,"jeonse":1.6},{"pyeong":25.7,"area_m2":84.96,"n":35,"sale":2.09,"jeonse":2.2}]},{"name":"무궁화","gu":"성산구","dong":"사파동","built":1988,"lat":35.22044,"lng":128.693981,"dealCount":148,"geoSrc":"esri","sizes":[{"pyeong":15.6,"area_m2":51.57,"n":123,"sale":3.4,"jeonse":1.2},{"pyeong":18.1,"area_m2":59.76,"n":25,"sale":4.31,"jeonse":1.5}]},{"name":"성원","gu":"성산구","dong":"신촌동","built":1987,"lat":35.197925,"lng":128.62909,"dealCount":45,"geoSrc":"esri","sizes":[{"pyeong":15.4,"area_m2":50.91,"n":15,"sale":1.1,"jeonse":0.9},{"pyeong":15.9,"area_m2":52.71,"n":18,"sale":0.85,"jeonse":0.8},{"pyeong":17.9,"area_m2":59.16,"n":12,"sale":1.2,"jeonse":1.0}]},