{"meta":{"source":"국토교통부 실거래가 공개시스템 (rt.molit.go.kr)","period":"2025-06 ~ 2026-06 (계약일 기준)","note":"거래 실데이터. 좌표는 도로명주소 지오코딩(AWS Location/Esri).","complexes":902,"sizeBands":1781,"bandsWithSale":1466,"bandsWithJeonse":890,"bandsWithWolse":1032,"wolseConvRate":0.052,"hedonic":{"r2":0.69,"n":12720,"distCorePerKm":-0.073,"brand":0.136,"agePerYear":-0.041,"floorLow":-0.037,"floorTop":-0.091}},"complexes":[{"name":"부산신항8단지부영아파트","gu":"진해구","dong":"용원동","built":2017,"lat":35.089897,"lng":128.814391,"dealCount":763,"brand":false,"maxFloor":29,"dcore":19.75,"trend":null,"sizes":[{"pyeong":18.1,"area_m2":59.93,"n":89,"floor":8,"jeonse":1.29,"wDep":0.43,"wMon":34},{"pyeong":25.7,"area_m2":84.99,"n":674,"floor":14,"jeonse":1.4,"wDep":0.99,"wMon":17}]},{"name":"진해석동푸르지오","gu":"진해구","dong":"석동","built":2006,"lat":35.160903,"lng":128.695977,"dealCount":38,"brand":true,"maxFloor":15,"dcore":8.01,"trend":-12.7,"sizes":[{"pyeong":25.7,"area_m2":84.98,"n":28,"floor":6,"sale":2.45,"jeonse":2.49,"wDep":2.25,"wMon":8},{"pyeong":35.2,"area_m2":116.45,"n":4,"floor":5,"sale":4.1,"jeonse":3.01,"wDep":0.3,"wMon":120},{"pyeong":41.8,"area_m2":138.04,"n":6,"floor":9,"sale":3.7,"jeonse":3.0}]},{"name":"사랑으로부영4단지아파트","gu":"진해구","dong":"용원동","built":2018,"lat":35.087117,"lng":128.802923,"dealCount":458,"brand":false,"maxFloor":20,"dcore":19.41,"trend":null,"sizes":[{"pyeong":25.7,"area_m2":84.94,"n":458,"floor":10,"jeonse":1.43,"wDep":0.55,"wMon":36}]},{"name":"사랑으로부영3단지아파트","gu":"진해구","dong":"용원동","built":2018,"lat":35.088505,"lng":128.803789,"dealCount":372,"brand":false,"maxFloor":20,"dcore":19.32,"trend":null,"sizes":[{"pyeong":25.7,"area_m2":84.99,"n":372,"floor":9,"jeonse":1.43,"wDep":0.55,"wMon":36}]},{"name":"진해신항만경남아너스빌","gu":"진해구","dong":"마천동","built":2008,"lat":35.127726,"lng":128.78461,"dealCount":15,"brand":false,"maxFloor":15,"dcore":14.8,"trend":-1.7,"sizes":[{"pyeong":18.1,"area_m2":59.68,"n":6,"floor":5,"wDep":0.5,"wMon":19},{"pyeong":25.7,"area_m2":84.82,"n":9,"floor":8,"sale":1.89,"jeonse":1.36,"wDep":0.8,"wMon":30}]},{"name":"사랑으로부영2단지아파트","gu":"진해구","dong":"용원동","built":2018,"lat":35.08915,"lng":128.805059,"dealCount":364,"brand":false,"maxFloor":20,"dcore":19.33,"trend":null,"sizes":[{"pyeong":18.1,"area_m2":59.93,"n":98,"floor":7,"jeonse":1.02,"wDep":0.32,"wMon":28},{"pyeong":25.6,"area_m2":84.63,"n":266,"floor":11,"jeonse":1.18,"wDep":0.86,"wMon":13}]},{"name":"부산신항13단지부영아파트","gu":"진해구","dong":"용원동","built":2017,"lat":35.09029,"lng":128.816141,"dealCount":455,"brand":false,"maxFloor":29,"dcore":19.81,"trend":null,"sizes":[{"pyeong":18.1,"area_m2":59.93,"n":62,"floor":9,"jeonse":1.34,"wDep":0.76,"wMon":22},{"pyeong":25.7,"area_m2":84.99,"n":393,"floor":13,"jeonse":1.4,"wDep":1.04,"wMon":15}]},{"name":"시티프라디움2차","gu":"진해구","dong":"남문동","built":2017,"lat":35.103281,"lng":128.751739,"dealCount":70,"brand":false,"maxFloor":25,"dcore":15.62,"trend":0.0,"sizes":[{"pyeong":22.4,"area_m2":74.15,"n":21,"floor":18,"sale":2.02,"jeonse":1.6,"wDep":0.1,"wMon":75},{"pyeong":22.5,"area_m2":74.45,"n":3,"floor":9,"sale":2.17,"wDep":0.1,"wMon":75},{"pyeong":25.7,"area_m2":84.99,"n":46,"floor":13,"sale":2.33,"jeonse":1.97,"wDep":0.5,"wMon":60}]},{"name":"풍호시영","gu":"진해구","dong":"풍호동","built":1991,"lat":35.13608,"lng":128.711758,"dealCount":60,"brand":false,"maxFloor":5,"dcore":11.0,"trend":0.0,"sizes":[{"pyeong":15.1,"area_m2":49.79,"n":60,"floor":4,"sale":1.0,"jeonse":0.7,"wDep":0.1,"wMon":30}]},{"name":"부산신항사랑으로부영5단지","gu":"진해구","dong":"용원동","built":2019,"lat":35.087254,"lng":128.80687,"dealCount":173,"brand":false,"maxFloor":23,"dcore":19.59,"trend":null,"sizes":[{"pyeong":25.7,"area_m2":84.99,"n":173,"floor":10,"jeonse":1.28,"wDep":0.42,"wMon":34}]},{"name":"벚꽃마을주공","gu":"진해구","dong":"자은동","built":2000,"lat":35.146809,"lng":128.709527,"dealCount":24,"brand":false,"maxFloor":8,"dcore":9.8,"trend":5.2,"sizes":[{"pyeong":18.1,"area_m2":59.71,"n":8,"floor":2,"sale":1.7,"jeonse":1.5,"wDep":0.25,"wMon":60},{"pyeong":22.9,"area_m2":75.57,"n":5,"floor":5,"sale":2.08},{"pyeong":25.6,"area_m2":84.58,"n":11,"floor":4,"sale":2.2,"wDep":0.1,"wMon":85}]},{"name":"진해장천대동다:숲","gu":"진해구","dong":"장천동","built":2007,"lat":35.12964,"lng":128.70606,"dealCount":95,"brand":false,"maxFloor":15,"dcore":11.59,"trend":-0.5,"sizes":[{"pyeong":18.1,"area_m2":59.98,"n":20,"floor":7,"sale":2.2,"jeonse":1.9,"wDep":0.2,"wMon":65},{"pyeong":25.7,"area_m2":84.82,"n":65,"floor":7,"sale":2.68,"jeonse":2.5,"wDep":2.2,"wMon":10},{"pyeong":36.9,"area_m2":122.06,"n":2,"floor":9,"sale":4.0},{"pyeong":42.8,"area_m2":141.41,"n":7,"floor":10,"sale":4.7,"jeonse":3.1},{"pyeong":68.2,"area_m2":225.53,"n":1,"floor":3,"sale":5.4}]},{"name":"시티프라디움1차아파트","gu":"진해구","dong":"남문동","built":2017,"lat":35.105562,"lng":128.755669,"dealCount":176,"brand":false,"maxFloor":25,"dcore":15.54,"trend":0.0,"sizes":[{"pyeong":18.1,"area_m2":59.98,"n":176,"floor":15,"sale":1.72,"jeonse":1.3,"wDep":0.95,"wMon":25}]},{"name":"부산신항사랑으로부영6단지","gu":"진해구","dong":"용원동","built":2019,"lat":35.087658,"lng":128.808424,"dealCount":306,"brand":false,"maxFloor":25,"dcore":19.64,"trend":null,"sizes":[{"pyeong":25.7,"area_m2":84.99,"n":306,"floor":11,"jeonse":1.3,"wDep":0.43,"wMon":34}]},{"name":"진해자이","gu":"진해구","dong":"석동","built":2006,"lat":35.155862,"lng":128.69931,"dealCount":22,"brand":true,"maxFloor":15,"dcore":8.62,"trend":0.2,"sizes":[{"pyeong":25.7,"area_m2":84.94,"n":15,"floor":8,"sale":3.02,"jeonse":2.7,"wDep":1.8,"wMon":33},{"pyeong":37.9,"area_m2":125.32,"n":5,"floor":9,"sale":3.62,"jeonse":3.5},{"pyeong":47.1,"area_m2":155.73,"n":2,"floor":8,"sale":4.17,"jeonse":4.0}]},{"name":"부산신항만이지더원2단지","gu":"진해구","dong":"용원동","built":2014,"lat":35.086625,"lng":128.812587,"dealCount":63,"brand":false,"maxFloor":28,"dcore":19.94,"trend":0.6,"sizes":[{"pyeong":18.1,"area_m2":59.93,"n":16,"floor":13,"sale":1.81,"jeonse":1.6,"wDep":0.2,"wMon":60},{"pyeong":25.7,"area_m2":84.89,"n":47,"floor":17,"sale":2.86,"jeonse":1.9,"wDep":0.2,"wMon":90}]},{"name":"성원","gu":"진해구","dong":"자은동","built":1995,"lat":35.152747,"lng":128.708805,"dealCount":134,"brand":false,"maxFloor":5,"dcore":9.15,"trend":-7.3,"sizes":[{"pyeong":12.0,"area_m2":39.75,"n":134,"floor":3,"sale":0.88,"jeonse":0.77,"wDep":0.1,"wMon":40}]},{"name":"STX칸","gu":"진해구","dong":"남양동","built":2009,"lat":35.11934,"lng":128.78043,"dealCount":40,"brand":false,"maxFloor":15,"dcore":15.33,"trend":null,"sizes":[{"pyeong":25.7,"area_m2":84.99,"n":40,"floor":9,"sale":1.5,"jeonse":1.1,"wDep":1.05,"wMon":10}]},{"name":"창원마린푸르지오1단지","gu":"진해구","dong":"풍호동","built":2015,"lat":35.133651,"lng":128.70609,"dealCount":175,"brand":true,"maxFloor":29,"dcore":11.15,"trend":-2.8,"sizes":[{"pyeong":18.1,"area_m2":59.99,"n":12,"floor":17,"sale":3.2,"jeonse":2.2,"wDep":0.5,"wMon":80},{"pyeong":20.0,"area_m2":65.97,"n":5,"floor":2,"sale":2.91,"jeonse":2.6},{"pyeong":22.1,"area_m2":72.99,"n":33,"floor":17,"sale":3.89,"jeonse":2.7,"wDep":0.3,"wMon":90},{"pyeong":25.7,"area_m2":84.98,"n":106,"floor":16,"sale":4.08,"jeonse":3.1,"wDep":2.0,"wMon":40},{"pyeong":31.5,"area_m2":103.97,"n":18,"floor":16,"sale":5.4,"jeonse":4.3},{"pyeong":34.8,"area_m2":114.93,"n":1,"floor":1,"jeonse":4.15}]},{"name":"창원마린2차푸르지오","gu":"진해구","dong":"안골동","built":2016,"lat":35.098098,"lng":128.806712,"dealCount":42,"brand":true,"maxFloor":21,"dcore":18.61,"trend":4.0,"sizes":[{"pyeong":18.1,"area_m2":59.93,"n":4,"floor":16,"sale":2.38,"wDep":0.2,"wMon":65},{"pyeong":22.7,"area_m2":74.96,"n":11,"floor":12,"sale":2.79,"jeonse":2.0,"wDep":0.2,"wMon":80},{"pyeong":25.7,"area_m2":84.93,"n":27,"floor":9,"sale":3.2,"jeonse":2.53,"wDep":0.2,"wMon":100}]},{"name":"남문리젠시빌란트더웰","gu":"진해구","dong":"남문동","built":2024,"lat":35.10664,"lng":128.757503,"dealCount":51,"brand":false,"maxFloor":25,"dcore":15.5,"trend":-1.3,"sizes":[{"pyeong":22.5,"area_m2":74.4,"n":21,"floor":8,"sale":2.3,"jeonse":1.8,"wDep":0.2,"wMon":70},{"pyeong":25.7,"area_m2":84.86,"n":30,"floor":9,"sale":3.2,"jeonse":2.2,"wDep":0.2,"wMon":84}]},{"name":"우림필유","gu":"진해구","dong":"석동","built":2008,"lat":35.156389,"lng":128.694712,"dealCount":101,"brand":false,"maxFloor":15,"dcore":8.49,"trend":-2.9,"sizes":[{"pyeong":25.7,"area_m2":84.86,"n":86,"floor":6,"sale":4.08,"jeonse":3.0,"wDep":0.5,"wMon":100},{"pyeong":40.3,"area_m2":133.37,"n":9,"floor":3,"sale":4.98,"jeonse":4.26,"wDep":1.0,"wMon":120},{"pyeong":48.3,"area_m2":159.72,"n":4,"floor":11,"sale":5.6,"jeonse":4.1,"wDep":0.2,"wMon":130},{"pyeong":57.5,"area_m2":189.96,"n":2,"floor":9,"sale":6.5,"jeonse":5.2}]},{"name":"남문동일스위트TheOcean2단지","gu":"진해구","dong":"제덕동","built":2025,"lat":35.102075,"lng":128.74459,"dealCount":31,"brand":false,"maxFloor":20,"dcore":15.5,"trend":null,"sizes":[{"pyeong":18.1,"area_m2":59.73,"n":13,"floor":7,"jeonse":1.3},{"pyeong":19.5,"area_m2":64.37,"n":13,"floor":15,"jeonse":1.3},{"pyeong":22.5,"area_m2":74.32,"n":3,"floor":8,"jeonse":1.6},{"pyeong":22.8,"area_m2":75.33,"n":1,"floor":4,"jeonse":1.6},{"pyeong":25.6,"area_m2":84.65,"n":1,"floor":4,"jeonse":1.9}]},{"name":"창원자은에일린의뜰","gu":"진해구","dong":"자은동","built":2017,"lat":35.154926,"lng":128.721444,"dealCount":39,"brand":false,"maxFloor":19,"dcore":9.29,"trend":4.5,"sizes":[{"pyeong":25.7,"area_m2":84.94,"n":27,"floor":10,"sale":2.5,"jeonse":3.2,"wDep":0.2,"wMon":110},{"pyeong":30.7,"area_m2":101.34,"n":8,"floor":9,"sale":5.1,"jeonse":3.5},{"pyeong":34.7,"area_m2":114.79,"n":4,"floor":7,"sale":5.3,"jeonse":3.9,"wDep":3.9,"wMon":10}]},{"name":"석동주공","gu":"진해구","dong":"석동","built":1991,"lat":35.149757,"lng":128.704674,"dealCount":108,"brand":false,"maxFloor":5,"dcore":9.38,"trend":9.1,"sizes":[{"pyeong":9.9,"area_m2":32.76,"n":62,"floor":3,"sale":0.93,"jeonse":0.77,"wDep":0.05,"wMon":35},{"pyeong":12.9,"area_m2":42.48,"n":36,"floor":3,"sale":1.27,"jeonse":0.75,"wDep":0.1,"wMon":40},{"pyeong":14.3,"area_m2":47.31,"n":10,"floor":3,"sale":1.17,"jeonse":0.7,"wDep":0.1,"wMon":40}]},{"name":"진해이동디에스아이존빌","gu":"진해구","dong":"이동","built":2008,"lat":35.155848,"lng":128.693855,"dealCount":9,"brand":false,"maxFloor":9,"dcore":8.54,"trend":null,"sizes":[{"pyeong":25.7,"area_m2":84.84,"n":9,"floor":6,"sale":2.89,"jeonse":3.03,"wDep":0.5,"wMon":100}]},{"name":"벚꽃그린빌3단지","gu":"진해구","dong":"석동","built":2003,"lat":35.154798,"lng":128.706569,"dealCount":31,"brand":false,"maxFloor":7,"dcore":8.87,"trend":-4.5,"sizes":[{"pyeong":20.2,"area_m2":66.66,"n":3,"floor":3,"sale":2.37,"jeonse":1.9},{"pyeong":25.7,"area_m2":84.97,"n":28,"floor":3,"sale":2.59,"jeonse":2.18,"wDep":1.05,"wMon":50}]},{"name":"창원자은3엘에이치천년나무아파트","gu":"진해구","dong":"자은동","built":2018,"lat":35.155917,"lng":128.717373,"dealCount":23,"brand":false,"maxFloor":14,"dcore":9.05,"trend":null,"sizes":[{"pyeong":7.5,"area_m2":24.72,"n":1,"floor":5,"wDep":0.21,"wMon":7},{"pyeong":8.1,"area_m2":26.83,"n":5,"floor":7,"wDep":0.19,"wMon":9},{"pyeong":11.4,"area_m2":37.7,"n":6,"floor":8,"wDep":0.2,"wMon":20},{"pyeong":14.2,"area_m2":46.94,"n":11,"floor":7,"wDep":0.32,"wMon":26}]},{"name":"청안그린빌","gu":"진해구","dong":"마천동","built":2002,"lat":35.127517,"lng":128.781957,"dealCount":7,"brand":false,"maxFloor":8,"dcore":14.68,"trend":null,"sizes":[{"pyeong":18.1,"area_m2":59.68,"n":7,"floor":3,"sale":0.78,"wDep":0.34,"wMon":10}]},{"name":"경화베스티움","gu":"진해구","dong":"경화동","built":2018,"lat":35.161506,"lng":128.68596,"dealCount":20,"brand":false,"maxFloor":14,"dcore":7.85,"trend":-2.8,"sizes":[{"pyeong":23.1,"area_m2":76.33,"n":1,"floor":8,"wDep":0.73,"wMon":15},{"pyeong":25.7,"area_m2":84.96,"n":19,"floor":6,"sale":3.3,"jeonse":2.55,"wDep":2.0,"wMon":25}]},{"name":"창원석동엘에이치아파트","gu":"진해구","dong":"석동","built":2019,"lat":35.155067,"lng":128.70935,"dealCount":62,"brand":false,"maxFloor":13,"dcore":8.91,"trend":null,"sizes":[{"pyeong":5.1,"area_m2":16.95,"n":26,"floor":8,"wDep":0.18,"wMon":7},{"pyeong":8.1,"area_m2":26.79,"n":4,"floor":7,"wDep":0.05,"wMon":15},{"pyeong":11.1,"area_m2":36.78,"n":32,"floor":5,"wDep":0.36,"wMon":20}]},{"name":"자은솔라움","gu":"진해구","dong":"자은동","built":2005,"lat":35.149088,"lng":128.710453,"dealCount":6,"brand":false,"maxFloor":8,"dcore":9.58,"trend":null,"sizes":[{"pyeong":18.1,"area_m2":59.91,"n":5,"floor":8,"sale":1.48,"jeonse":1.43,"wDep":0.15,"wMon":55},{"pyeong":20.8,"area_m2":68.74,"n":1,"floor":6,"sale":1.7}]},{"name":"진해이동미소지움","gu":"진해구","dong":"이동","built":2007,"lat":35.155587,"lng":128.69849,"dealCount":9,"brand":false,"maxFloor":10,"dcore":8.63,"trend":null,"sizes":[{"pyeong":25.7,"area_m2":84.99,"n":2,"floor":3,"sale":2.84,"jeonse":2.25},{"pyeong":39.1,"area_m2":129.33,"n":3,"floor":4,"jeonse":3.1,"wDep":2.9,"wMon":15},{"pyeong":44.3,"area_m2":146.45,"n":1,"floor":2,"jeonse":3.22},{"pyeong":49.9,"area_m2":164.88,"n":3,"floor":6,"sale":4.05}]},{"name":"남성파크A","gu":"진해구","dong":"경화동","built":1994,"lat":35.159083,"lng":128.680476,"dealCount":1,"brand":false,"maxFloor":4,"dcore":8.1,"trend":null,"sizes":[{"pyeong":20.7,"area_m2":68.58,"n":1,"floor":4,"jeonse":0.7}]},{"name":"풍호주공","gu":"진해구","dong":"풍호동","built":1990,"lat":35.14264,"lng":128.702786,"dealCount":49,"brand":false,"maxFloor":5,"dcore":10.11,"trend":null,"sizes":[{"pyeong":11.9,"area_m2":39.3,"n":39,"floor":4,"sale":0.77,"jeonse":0.66,"wDep":0.65,"wMon":50},{"pyeong":14.1,"area_m2":46.68,"n":10,"floor":2,"sale":0.9,"jeonse":0.7,"wDep":0.1,"wMon":40}]},{"name":"경화동두산위브","gu":"진해구","dong":"경화동","built":2017,"lat":35.160465,"lng":128.685221,"dealCount":50,"brand":true,"maxFloor":15,"dcore":7.96,"trend":-10.9,"sizes":[{"pyeong":18.1,"area_m2":59.92,"n":6,"floor":9,"sale":2.96,"wDep":1.4,"wMon":30},{"pyeong":22.3,"area_m2":73.86,"n":3,"floor":8,"sale":3.59,"jeonse":2.8},{"pyeong":22.6,"area_m2":74.72,"n":13,"floor":4,"sale":3.53,"jeonse":2.96},{"pyeong":25.7,"area_m2":84.94,"n":28,"floor":8,"sale":3.34,"jeonse":3.05,"wDep":1.0,"wMon":80}]},{"name":"남문호반베르디움","gu":"진해구","dong":"남문동","built":2018,"lat":35.103595,"lng":128.757853,"dealCount":113,"brand":true,"maxFloor":25,"dcore":15.82,"trend":-2.6,"sizes":[{"pyeong":21.8,"area_m2":71.99,"n":62,"floor":11,"sale":2.25,"jeonse":1.8,"wDep":0.15,"wMon":70},{"pyeong":25.7,"area_m2":84.99,"n":51,"floor":12,"sale":2.64,"jeonse":2.1,"wDep":0.2,"wMon":80}]},{"name":"해인로즈빌","gu":"진해구","dong":"청안동","built":2002,"lat":35.106381,"lng":128.80624,"dealCount":94,"brand":false,"maxFloor":15,"dcore":17.86,"trend":2.9,"sizes":[{"pyeong":18.1,"area_m2":59.93,"n":94,"floor":7,"sale":0.93,"jeonse":1.04,"wDep":0.1,"wMon":50}]},{"name":"창원마린푸르지오2단지","gu":"진해구","dong":"풍호동","built":2015,"lat":35.131087,"lng":128.706539,"dealCount":19,"brand":true,"maxFloor":24,"dcore":11.44,"trend":1.0,"sizes":[{"pyeong":25.7,"area_m2":84.96,"n":19,"floor":14,"sale":3.73,"jeonse":3.0,"wDep":0.3,"wMon":110}]},{"name":"수창블루안","gu":"진해구","dong":"속천동","built":2004,"lat":35.141928,"lng":128.669754,"dealCount":4,"brand":false,"maxFloor":9,"dcore":10.06,"trend":null,"sizes":[{"pyeong":18.1,"area_m2":59.82,"n":4,"floor":4,"sale":1.15,"wDep":0.05,"wMon":65}]},{"name":"남명플럼빌리지","gu":"진해구","dong":"마천동","built":2004,"lat":35.124938,"lng":128.783118,"dealCount":34,"brand":false,"maxFloor":18,"dcore":14.97,"trend":-12.5,"sizes":[{"pyeong":18.1,"area_m2":59.88,"n":30,"floor":5,"sale":1.12,"jeonse":0.7,"wDep":0.15,"wMon":40},{"pyeong":25.7,"area_m2":84.97,"n":4,"floor":13,"sale":1.5,"wDep":0.1,"wMon":60}]},{"name":"일신님","gu":"진해구","dong":"용원동","built":2005,"lat":35.102594,"lng":128.807912,"dealCount":48,"brand":false,"maxFloor":15,"dcore":18.28,"trend":-1.4,"sizes":[{"pyeong":25.7,"area_m2":84.99,"n":29,"floor":7,"sale":2.39,"jeonse":1.6,"wDep":0.1,"wMon":75},{"pyeong":30.8,"area_m2":101.72,"n":16,"floor":7,"sale":3.14,"jeonse":1.7,"wDep":0.2,"wMon":85},{"pyeong":36.7,"area_m2":121.41,"n":3,"floor":8,"sale":2.8}]},{"name":"부영3차","gu":"진해구","dong":"청안동","built":2003,"lat":35.104971,"lng":128.805377,"dealCount":153,"brand":false,"maxFloor":15,"dcore":17.93,"trend":4.3,"sizes":[{"pyeong":15.1,"area_m2":49.84,"n":94,"floor":8,"sale":0.89,"jeonse":0.67,"wDep":0.3,"wMon":45},{"pyeong":18.1,"area_m2":59.84,"n":59,"floor":8,"sale":1.04,"jeonse":0.99,"wDep":0.07,"wMon":55}]},{"name":"풍림","gu":"진해구","dong":"청안동","built":2000,"lat":35.105449,"lng":128.806954,"dealCount":145,"brand":false,"maxFloor":15,"dcore":17.98,"trend":1.5,"sizes":[{"pyeong":18.1,"area_m2":59.96,"n":145,"floor":7,"sale":1.28,"jeonse":1.0,"wDep":0.1,"wMon":45}]},{"name":"남문동일스위트TheOcean1단지","gu":"진해구","dong":"제덕동","built":2025,"lat":35.103538,"lng":128.741826,"dealCount":181,"brand":false,"maxFloor":20,"dcore":15.26,"trend":null,"sizes":[{"pyeong":18.1,"area_m2":59.73,"n":118,"floor":8,"jeonse":1.3},{"pyeong":19.5,"area_m2":64.37,"n":20,"floor":15,"jeonse":1.3},{"pyeong":22.5,"area_m2":74.32,"n":29,"floor":9,"jeonse":1.6},{"pyeong":22.8,"area_m2":75.33,"n":4,"floor":10,"jeonse":1.6},{"pyeong":25.7,"area_m2":84.96,"n":10,"floor":10,"jeonse":1.9,"wDep":0.1,"wMon":50}]},{"name":"부영1차","gu":"진해구","dong":"청안동","built":2002,"lat":35.10146,"lng":128.803675,"dealCount":49,"brand":false,"maxFloor":14,"dcore":18.15,"trend":-1.3,"sizes":[{"pyeong":25.7,"area_m2":84.95,"n":49,"floor":7,"sale":1.53,"jeonse":1.46,"wDep":0.6,"wMon":40}]},{"name":"평화마을","gu":"진해구","dong":"풍호동","built":2000,"lat":35.135374,"lng":128.703394,"dealCount":14,"brand":false,"maxFloor":14,"dcore":10.92,"trend":-17.5,"sizes":[{"pyeong":18.1,"area_m2":59.91,"n":14,"floor":9,"sale":1.62,"jeonse":0.85,"wDep":1.05,"wMon":5}]},{"name":"코아루","gu":"진해구","dong":"용원동","built":2005,"lat":35.101393,"lng":128.807007,"dealCount":52,"brand":false,"maxFloor":15,"dcore":18.33,"trend":-3.2,"sizes":[{"pyeong":25.6,"area_m2":84.72,"n":47,"floor":7,"sale":2.0,"jeonse":1.9,"wDep":1.0,"wMon":40},{"pyeong":36.4,"area_m2":120.35,"n":5,"floor":11,"sale":2.96,"jeonse":2.64}]},{"name":"경화주공","gu":"진해구","dong":"경화동","built":1986,"lat":35.158178,"lng":128.68897,"dealCount":41,"brand":false,"maxFloor":5,"dcore":8.23,"trend":-19.7,"sizes":[{"pyeong":9.7,"area_m2":31.98,"n":26,"floor":3,"sale":0.6,"jeonse":0.5,"wDep":0.02,"wMon":25},{"pyeong":12.0,"area_m2":39.72,"n":15,"floor":3,"sale":0.6,"jeonse":0.4,"wDep":0.1,"wMon":24}]},{"name":"태인아네트","gu":"진해구","dong":"화천동","built":2015,"lat":35.152225,"lng":128.658503,"dealCount":1,"brand":false,"maxFloor":3,"dcore":9.09,"trend":null,"sizes":[{"pyeong":23.9,"area_m2":78.92,"n":1,"floor":3,"wDep":0.2,"wMon":76}]},{"name":"우성","gu":"진해구","dong":"풍호동","built":1994,"lat":35.139354,"lng":128.705603,"dealCount":144,"brand":false,"maxFloor":13,"dcore":10.52,"trend":-0.3,"sizes":[{"pyeong":18.1,"area_m2":59.85,"n":68,"floor":5,"sale":1.14,"jeonse":1.0,"wDep":0.2,"wMon":40},{"pyeong":21.1,"area_m2":69.59,"n":8,"floor":3,"sale":1.63,"jeonse":1.28,"wDep":0.3,"wMon":35},{"pyeong":23.3,"area_m2":77.06,"n":12,"floor":2,"sale":1.51,"jeonse":1.32,"wDep":0.2,"wMon":50},{"pyeong":25.6,"area_m2":84.77,"n":51,"floor":7,"sale":1.44,"jeonse":1.4,"wDep":1.4,"wMon":5},{"pyeong":39.2,"area_m2":129.56,"n":5,"floor":6,"sale":2.2,"jeonse":2.08}]},{"name":"창원한신휴플러스오션파크","gu":"진해구","dong":"장천동","built":2016,"lat":35.128662,"lng":128.708951,"dealCount":83,"brand":false,"maxFloor":23,"dcore":11.75,"trend":0.2,"sizes":[{"pyeong":21.1,"area_m2":69.79,"n":43,"floor":10,"sale":2.63,"jeonse":2.6,"wDep":0.7,"wMon":75},{"pyeong":25.6,"area_m2":84.68,"n":40,"floor":11,"sale":3.17,"jeonse":3.0,"wDep":0.3,"wMon":100}]},{"name":"보람더좋은큐브","gu":"진해구","dong":"경화동","built":2013,"lat":35.157376,"lng":128.691355,"dealCount":1,"brand":false,"maxFloor":6,"dcore":8.34,"trend":null,"sizes":[{"pyeong":14.8,"area_m2":49.0,"n":1,"floor":6,"wDep":0.1,"wMon":50}]},{"name":"창원진해비전시티우방아이유쉘아파트","gu":"진해구","dong":"남양동","built":2021,"lat":35.119834,"lng":128.778554,"dealCount":90,"brand":false,"maxFloor":15,"dcore":15.18,"trend":6.7,"sizes":[{"pyeong":23.2,"area_m2":76.59,"n":90,"floor":8,"sale":2.11,"jeonse":1.6,"wDep":0.2,"wMon":65}]},{"name":"대동다:숲","gu":"진해구","dong":"경화동","built":2006,"lat":35.161055,"lng":128.680265,"dealCount":23,"brand":false,"maxFloor":15,"dcore":7.88,"trend":9.0,"sizes":[{"pyeong":25.7,"area_m2":85.0,"n":22,"floor":9,"sale":2.39,"jeonse":1.8},{"pyeong":39.4,"area_m2":130.2,"n":1,"floor":13,"sale":3.05}]},{"name":"뉴중앙하이츠","gu":"진해구","dong":"이동","built":2013,"lat":35.151948,"lng":128.693671,"dealCount":21,"brand":false,"maxFloor":7,"dcore":8.97,"trend":1.3,"sizes":[{"pyeong":10.8,"area_m2":35.58,"n":21,"floor":4,"sale":0.79,"jeonse":0.67,"wDep":0.1,"wMon":40}]},{"name":"샛별마을","gu":"진해구","dong":"풍호동","built":2000,"lat":35.141453,"lng":128.703691,"dealCount":8,"brand":false,"maxFloor":11,"dcore":10.26,"trend":null,"sizes":[{"pyeong":11.9,"area_m2":39.5,"n":3,"floor":4,"sale":0.91,"jeonse":0.58},{"pyeong":17.1,"area_m2":56.65,"n":5,"floor":5,"sale":0.9,"jeonse":0.8,"wDep":0.2,"wMon":35}]},{"name":"삼익유토피아","gu":"진해구","dong":"마천동","built":1990,"lat":35.126582,"lng":128.783881,"dealCount":3,"brand":false,"maxFloor":3,"dcore":14.86,"trend":null,"sizes":[{"pyeong":20.7,"area_m2":68.55,"n":1,"floor":3,"wDep":0.05,"wMon":45},{"pyeong":21.6,"area_m2":71.32,"n":2,"floor":1,"wDep":0.05,"wMon":45}]},{"name":"퀸스스테이","gu":"진해구","dong":"충의동","built":2022,"lat":35.145423,"lng":128.658404,"dealCount":7,"brand":false,"maxFloor":9,"dcore":9.83,"trend":null,"sizes":[{"pyeong":20.9,"area_m2":69.22,"n":4,"floor":7,"jeonse":1.35},{"pyeong":22.0,"area_m2":72.59,"n":3,"floor":6,"jeonse":1.2,"wDep":1.18,"wMon":20}]},{"name":"상지약수","gu":"진해구","dong":"석동","built":1991,"lat":35.160826,"lng":128.694246,"dealCount":5,"brand":false,"maxFloor":15,"dcore":8.0,"trend":null,"sizes":[{"pyeong":25.6,"area_m2":84.71,"n":5,"floor":13,"sale":1.86,"jeonse":1.43,"wDep":1.3,"wMon":10}]},{"name":"부산신항만이지더원1단지","gu":"진해구","dong":"용원동","built":2014,"lat":35.088103,"lng":128.811569,"dealCount":34,"brand":false,"maxFloor":28,"dcore":19.76,"trend":0.4,"sizes":[{"pyeong":18.1,"area_m2":59.93,"n":7,"floor":7,"sale":1.86,"wDep":0.1,"wMon":75},{"pyeong":25.7,"area_m2":84.89,"n":27,"floor":15,"sale":2.27,"jeonse":1.85,"wDep":0.2,"wMon":80}]},{"name":"진해유진에코블루스카이","gu":"진해구","dong":"속천동","built":2015,"lat":35.143227,"lng":128.669579,"dealCount":8,"brand":false,"maxFloor":17,"dcore":9.92,"trend":2.6,"sizes":[{"pyeong":18.1,"area_m2":59.97,"n":8,"floor":7,"sale":2.64,"wDep":1.0,"wMon":35}]},{"name":"헤븐하임","gu":"진해구","dong":"여좌동","built":2016,"lat":35.152328,"lng":128.66829,"dealCount":3,"brand":false,"maxFloor":9,"dcore":8.92,"trend":null,"sizes":[{"pyeong":19.5,"area_m2":64.32,"n":2,"floor":6,"sale":1.9,"jeonse":1.54},{"pyeong":24.5,"area_m2":80.94,"n":1,"floor":4,"sale":2.4}]},{"name":"석동빌라","gu":"진해구","dong":"석동","built":1992,"lat":35.158934,"lng":128.701459,"dealCount":2,"brand":false,"maxFloor":5,"dcore":8.32,"trend":null,"sizes":[{"pyeong":24.7,"area_m2":81.78,"n":2,"floor":4,"jeonse":0.9,"wDep":0.7,"wMon":25}]},{"name":"금화골든파크","gu":"진해구","dong":"여좌동","built":2004,"lat":35.152911,"lng":128.660847,"dealCount":5,"brand":false,"maxFloor":9,"dcore":8.97,"trend":null,"sizes":[{"pyeong":10.4,"area_m2":34.38,"n":2,"floor":5,"wDep":0.05,"wMon":39},{"pyeong":11.0,"area_m2":36.46,"n":2,"floor":6,"sale":0.69,"wDep":0.2,"wMon":20},{"pyeong":25.5,"area_m2":84.45,"n":1,"floor":8,"sale":1.63}]},{"name":"남흥","gu":"진해구","dong":"이동","built":1991,"lat":35.153966,"lng":128.694367,"dealCount":11,"brand":false,"maxFloor":6,"dcore":8.75,"trend":null,"sizes":[{"pyeong":23.4,"area_m2":77.21,"n":4,"floor":6,"sale":1.0,"jeonse":1.21,"wDep":0.2,"wMon":30},{"pyeong":25.7,"area_m2":84.96,"n":6,"floor":1,"sale":1.74,"jeonse":1.35,"wDep":0.1,"wMon":50},{"pyeong":38.9,"area_m2":128.63,"n":1,"floor":3,"sale":2.35}]},{"name":"자은동더샵","gu":"진해구","dong":"자은동","built":2005,"lat":35.142283,"lng":128.709475,"dealCount":18,"brand":true,"maxFloor":15,"dcore":10.28,"trend":11.5,"sizes":[{"pyeong":22.4,"area_m2":74.16,"n":2,"floor":5,"sale":2.33,"jeonse":1.8},{"pyeong":25.5,"area_m2":84.42,"n":12,"floor":6,"sale":2.45,"jeonse":1.8},{"pyeong":37.3,"area_m2":123.22,"n":4,"floor":6,"sale":3.08,"jeonse":2.45}]},{"name":"부영2차","gu":"진해구","dong":"청안동","built":2002,"lat":35.103381,"lng":128.803689,"dealCount":35,"brand":false,"maxFloor":14,"dcore":17.98,"trend":6.8,"sizes":[{"pyeong":18.1,"area_m2":59.84,"n":35,"floor":6,"sale":1.04,"jeonse":1.1,"wDep":0.15,"wMon":50}]},{"name":"센트럴빌리지","gu":"진해구","dong":"자은동","built":2018,"lat":35.156476,"lng":128.717172,"dealCount":44,"brand":false,"maxFloor":22,"dcore":8.99,"trend":null,"sizes":[{"pyeong":18.1,"area_m2":59.95,"n":42,"floor":12,"sale":2.83,"jeonse":2.1,"wDep":0.41,"wMon":46},{"pyeong":22.7,"area_m2":74.93,"n":1,"floor":14,"wDep":0.45,"wMon":37},{"pyeong":25.7,"area_m2":84.9,"n":1,"floor":7,"wDep":0.56,"wMon":39}]},{"name":"녹수빌라","gu":"진해구","dong":"풍호동","built":1991,"lat":35.137489,"lng":128.709574,"dealCount":6,"brand":false,"maxFloor":5,"dcore":10.8,"trend":null,"sizes":[{"pyeong":16.7,"area_m2":55.24,"n":4,"floor":4,"sale":0.5,"wDep":0.2,"wMon":35},{"pyeong":22.2,"area_m2":73.35,"n":2,"floor":4,"sale":0.6,"wDep":0.1,"wMon":40}]},{"name":"자은프라임","gu":"진해구","dong":"자은동","built":2015,"lat":35.15307,"lng":128.720166,"dealCount":126,"brand":false,"maxFloor":25,"dcore":9.44,"trend":1.5,"sizes":[{"pyeong":18.1,"area_m2":59.9,"n":72,"floor":8,"sale":2.25,"jeonse":2.0,"wDep":0.3,"wMon":70},{"pyeong":22.6,"area_m2":74.56,"n":17,"floor":9,"sale":2.73,"jeonse":2.3,"wDep":0.3,"wMon":95},{"pyeong":25.7,"area_m2":84.89,"n":37,"floor":11,"sale":2.95,"jeonse":2.45,"wDep":0.9,"wMon":60}]},{"name":"청안해오름","gu":"진해구","dong":"두동","built":2004,"lat":35.120531,"lng":128.790592,"dealCount":16,"brand":false,"maxFloor":17,"dcore":15.76,"trend":null,"sizes":[{"pyeong":18.1,"area_m2":59.9,"n":6,"floor":7,"wDep":0.38,"wMon":9},{"pyeong":25.7,"area_m2":84.92,"n":10,"floor":8,"sale":0.88,"wDep":0.3,"wMon":40}]},{"name":"경화동더샵","gu":"진해구","dong":"경화동","built":2005,"lat":35.160029,"lng":128.679963,"dealCount":19,"brand":true,"maxFloor":14,"dcore":8.0,"trend":-10.6,"sizes":[{"pyeong":25.7,"area_m2":84.94,"n":19,"floor":6,"sale":2.0,"jeonse":1.5,"wDep":1.47,"wMon":20}]},{"name":"협성DS.이아이존빌","gu":"진해구","dong":"자은동","built":2014,"lat":35.140154,"lng":128.703876,"dealCount":37,"brand":false,"maxFloor":14,"dcore":10.4,"trend":-7.9,"sizes":[{"pyeong":18.1,"area_m2":59.97,"n":15,"floor":8,"sale":2.42,"jeonse":2.0,"wDep":0.2,"wMon":75},{"pyeong":25.7,"area_m2":84.98,"n":22,"floor":8,"sale":3.1,"jeonse":2.6,"wDep":0.25,"wMon":100}]},{"name":"진해남문하우스디","gu":"진해구","dong":"남문동","built":2019,"lat":35.104556,"lng":128.753152,"dealCount":32,"brand":false,"maxFloor":24,"dcore":15.54,"trend":-6.0,"sizes":[{"pyeong":22.1,"area_m2":72.97,"n":5,"floor":12,"jeonse":1.5},{"pyeong":25.7,"area_m2":84.93,"n":27,"floor":11,"sale":2.31,"jeonse":1.2,"wDep":0.2,"wMon":75}]},{"name":"성호에코허니문","gu":"진해구","dong":"경화동","built":2013,"lat":35.158162,"lng":128.690136,"dealCount":11,"brand":false,"maxFloor":8,"dcore":8.24,"trend":null,"sizes":[{"pyeong":10.2,"area_m2":33.66,"n":1,"floor":7,"wDep":0.1,"wMon":30},{"pyeong":11.7,"area_m2":38.83,"n":10,"floor":5,"sale":0.71,"jeonse":0.65,"wDep":0.25,"wMon":30}]},{"name":"대신한울","gu":"진해구","dong":"부흥동","built":1994,"lat":35.146742,"lng":128.662514,"dealCount":8,"brand":false,"maxFloor":13,"dcore":9.61,"trend":null,"sizes":[{"pyeong":18.0,"area_m2":59.57,"n":5,"floor":8,"sale":0.71,"wDep":0.1,"wMon":40},{"pyeong":25.7,"area_m2":84.98,"n":3,"floor":4,"sale":0.83,"jeonse":0.9}]},{"name":"진해녹산현대","gu":"진해구","dong":"용원동","built":1998,"lat":35.103777,"lng":128.809947,"dealCount":39,"brand":false,"maxFloor":15,"dcore":18.29,"trend":-6.9,"sizes":[{"pyeong":25.7,"area_m2":84.97,"n":39,"floor":10,"sale":1.35,"jeonse":1.6,"wDep":0.1,"wMon":70}]},{"name":"대풍맨션","gu":"진해구","dong":"이동","built":1995,"lat":35.156715,"lng":128.694075,"dealCount":2,"brand":false,"maxFloor":3,"dcore":8.45,"trend":null,"sizes":[{"pyeong":18.0,"area_m2":59.58,"n":2,"floor":2,"wDep":0.56,"wMon":30}]},{"name":"아델펠리스","gu":"진해구","dong":"숭인동","built":2016,"lat":35.145221,"lng":128.658419,"dealCount":1,"brand":false,"maxFloor":3,"dcore":9.85,"trend":null,"sizes":[{"pyeong":23.9,"area_m2":78.91,"n":1,"floor":3,"jeonse":1.35}]},{"name":"대동빌라트","gu":"진해구","dong":"자은동","built":1996,"lat":35.15159,"lng":128.707682,"dealCount":12,"brand":false,"maxFloor":4,"dcore":9.24,"trend":25.6,"sizes":[{"pyeong":25.7,"area_m2":84.9,"n":9,"floor":2,"sale":2.4,"jeonse":1.9,"wDep":0.4,"wMon":50},{"pyeong":39.4,"area_m2":130.35,"n":3,"floor":3,"sale":3.28}]},{"name":"리젠시빌란트","gu":"진해구","dong":"남문동","built":2019,"lat":35.104384,"lng":128.758575,"dealCount":58,"brand":false,"maxFloor":25,"dcore":15.77,"trend":null,"sizes":[{"pyeong":22.2,"area_m2":73.5,"n":24,"floor":13,"jeonse":1.5},{"pyeong":25.7,"area_m2":84.82,"n":34,"floor":11,"jeonse":1.68}]},{"name":"대림","gu":"진해구","dong":"석동","built":1992,"lat":35.160085,"lng":128.699037,"dealCount":7,"brand":false,"maxFloor":9,"dcore":8.15,"trend":null,"sizes":[{"pyeong":13.5,"area_m2":44.47,"n":7,"floor":8,"sale":0.8,"wDep":0.1,"wMon":35}]},{"name":"삼정그린코아1단지","gu":"진해구","dong":"경화동","built":2005,"lat":35.161476,"lng":128.682234,"dealCount":7,"brand":false,"maxFloor":13,"dcore":7.84,"trend":null,"sizes":[{"pyeong":25.7,"area_m2":84.89,"n":7,"floor":12,"sale":1.91,"jeonse":1.8}]},{"name":"원창베스트빌","gu":"진해구","dong":"자은동","built":2003,"lat":35.141575,"lng":128.70456,"dealCount":9,"brand":false,"maxFloor":6,"dcore":10.26,"trend":20.3,"sizes":[{"pyeong":16.2,"area_m2":53.57,"n":8,"floor":3,"sale":0.86,"jeonse":0.65,"wDep":0.1,"wMon":40},{"pyeong":17.9,"area_m2":59.31,"n":1,"floor":6,"sale":1.42}]},{"name":"마린힐즈","gu":"진해구","dong":"충무동","built":2020,"lat":35.152367,"lng":128.658104,"dealCount":8,"brand":false,"maxFloor":10,"dcore":9.08,"trend":null,"sizes":[{"pyeong":13.8,"area_m2":45.47,"n":1,"floor":5,"wDep":0.1,"wMon":45},{"pyeong":18.7,"area_m2":61.69,"n":7,"floor":7,"wDep":0.02,"wMon":70}]},{"name":"자은중흥에스-클래스","gu":"진해구","dong":"자은동","built":2017,"lat":35.152749,"lng":128.718319,"dealCount":55,"brand":false,"maxFloor":21,"dcore":9.41,"trend":-2.9,"sizes":[{"pyeong":23.0,"area_m2":76.16,"n":12,"floor":7,"sale":3.53,"jeonse":2.6,"wDep":1.4,"wMon":65},{"pyeong":25.7,"area_m2":84.86,"n":43,"floor":8,"sale":3.53,"jeonse":3.2,"wDep":2.2,"wMon":25}]},{"name":"만송하이빌","gu":"진해구","dong":"태평동","built":2012,"lat":35.145774,"lng":128.658661,"dealCount":4,"brand":false,"maxFloor":6,"dcore":9.78,"trend":null,"sizes":[{"pyeong":13.8,"area_m2":45.52,"n":1,"floor":6,"wDep":0.1,"wMon":55},{"pyeong":14.6,"area_m2":48.22,"n":3,"floor":6,"wDep":0.03,"wMon":33}]},{"name":"벽산이솔렌스힐","gu":"진해구","dong":"장천동","built":2008,"lat":35.130256,"lng":128.709781,"dealCount":11,"brand":false,"maxFloor":12,"dcore":11.59,"trend":-6.3,"sizes":[{"pyeong":25.7,"area_m2":84.95,"n":8,"floor":6,"sale":2.75,"jeonse":2.0,"wDep":0.3,"wMon":85},{"pyeong":36.5,"area_m2":120.72,"n":1,"floor":11,"jeonse":2.2},{"pyeong":42.5,"area_m2":140.47,"n":2,"floor":9,"sale":3.96,"wDep":0.3,"wMon":110}]},{"name":"경화","gu":"진해구","dong":"경화동","built":1985,"lat":35.156605,"lng":128.691118,"dealCount":3,"brand":false,"maxFloor":5,"dcore":8.43,"trend":null,"sizes":[{"pyeong":15.8,"area_m2":52.29,"n":3,"floor":5,"sale":0.61,"wDep":0.05,"wMon":35}]},{"name":"동화맨션A동","gu":"진해구","dong":"소사동","built":1996,"lat":35.126546,"lng":128.778627,"dealCount":2,"brand":false,"maxFloor":4,"dcore":14.58,"trend":null,"sizes":[{"pyeong":14.9,"area_m2":49.2,"n":1,"floor":3,"sale":0.38},{"pyeong":18.1,"area_m2":59.96,"n":1,"floor":4,"wDep":0.1,"wMon":35}]},{"name":"한결예다움","gu":"진해구","dong":"마천동","built":2014,"lat":35.123313,"lng":128.787376,"dealCount":8,"brand":false,"maxFloor":9,"dcore":15.34,"trend":null,"sizes":[{"pyeong":15.1,"area_m2":50.0,"n":8,"floor":5,"sale":0.61,"wDep":0.05,"wMon":40}]},{"name":"정원아트빌","gu":"진해구","dong":"화천동","built":2001,"lat":35.152234,"lng":128.658342,"dealCount":3,"brand":false,"maxFloor":9,"dcore":9.09,"trend":null,"sizes":[{"pyeong":25.5,"area_m2":84.23,"n":3,"floor":7,"sale":1.43,"wDep":0.5,"wMon":30}]},{"name":"데시앙","gu":"진해구","dong":"부흥동","built":2007,"lat":35.147453,"lng":128.661811,"dealCount":15,"brand":true,"maxFloor":11,"dcore":9.55,"trend":8.7,"sizes":[{"pyeong":25.7,"area_m2":84.96,"n":11,"floor":7,"sale":2.13,"jeonse":1.71},{"pyeong":38.3,"area_m2":126.58,"n":4,"floor":5,"sale":3.25}]},{"name":"더프라임","gu":"진해구","dong":"충무동","built":2016,"lat":35.151801,"lng":128.669596,"dealCount":1,"brand":false,"maxFloor":10,"dcore":8.97,"trend":null,"sizes":[{"pyeong":25.6,"area_m2":84.74,"n":1,"floor":10,"jeonse":1.32}]},{"name":"신광","gu":"진해구","dong":"풍호동","built":1990,"lat":35.135537,"lng":128.70671,"dealCount":5,"brand":false,"maxFloor":3,"dcore":10.96,"trend":null,"sizes":[{"pyeong":14.2,"area_m2":46.8,"n":2,"floor":3,"sale":0.33,"wDep":0.4,"wMon":30},{"pyeong":14.6,"area_m2":48.24,"n":3,"floor":1,"wDep":0.05,"wMon":40}]},{"name":"신항마린애시앙","gu":"진해구","dong":"용원동","built":2023,"lat":35.086918,"lng":128.807983,"dealCount":2,"brand":false,"maxFloor":13,"dcore":19.68,"trend":null,"sizes":[{"pyeong":18.1,"area_m2":60.0,"n":2,"floor":12,"wDep":0.2,"wMon":68}]},{"name":"유림빌","gu":"진해구","dong":"인사동","built":2013,"lat":35.149872,"lng":128.665817,"dealCount":3,"brand":false,"maxFloor":6,"dcore":9.22,"trend":null,"sizes":[{"pyeong":13.6,"area_m2":44.95,"n":3,"floor":6,"sale":1.05,"wDep":0.7,"wMon":15}]},{"name":"초원빌라(923)","gu":"진해구","dong":"경화동","built":1992,"lat":35.15705,"lng":128.688962,"dealCount":4,"brand":false,"maxFloor":6,"dcore":8.36,"trend":null,"sizes":[{"pyeong":15.1,"area_m2":49.89,"n":1,"floor":4,"wDep":0.15,"wMon":30},{"pyeong":23.8,"area_m2":78.63,"n":2,"floor":6,"sale":0.99},{"pyeong":24.7,"area_m2":81.78,"n":1,"floor":6,"wDep":0.03,"wMon":35}]},{"name":"디에스아이존빌","gu":"진해구","dong":"풍호동","built":2002,"lat":35.138693,"lng":128.70647,"dealCount":14,"brand":false,"maxFloor":6,"dcore":10.61,"trend":-12.4,"sizes":[{"pyeong":18.1,"area_m2":59.96,"n":4,"floor":4,"sale":1.84,"wDep":0.25,"wMon":29},{"pyeong":23.1,"area_m2":76.22,"n":2,"floor":2,"sale":1.86},{"pyeong":25.6,"area_m2":84.61,"n":6,"floor":2,"sale":2.47,"jeonse":2.09,"wDep":0.3,"wMon":65},{"pyeong":32.6,"area_m2":107.67,"n":2,"floor":3,"sale":2.92,"wDep":0.18,"wMon":75}]},{"name":"한림리츠빌","gu":"진해구","dong":"풍호동","built":2005,"lat":35.139535,"lng":128.708668,"dealCount":29,"brand":false,"maxFloor":15,"dcore":10.56,"trend":12.1,"sizes":[{"pyeong":25.7,"area_m2":84.98,"n":15,"floor":5,"sale":2.7,"jeonse":2.1},{"pyeong":39.8,"area_m2":131.64,"n":10,"floor":8,"sale":3.32},{"pyeong":57.4,"area_m2":189.65,"n":4,"floor":6,"sale":4.1}]},{"name":"자은주공","gu":"진해구","dong":"자은동","built":1994,"lat":35.149296,"lng":128.708504,"dealCount":2,"brand":false,"maxFloor":4,"dcore":9.51,"trend":null,"sizes":[{"pyeong":11.8,"area_m2":39.0,"n":2,"floor":3,"wDep":0.04,"wMon":7}]},{"name":"미성빌리지4차","gu":"진해구","dong":"대죽동","built":2015,"lat":35.140381,"lng":128.671712,"dealCount":5,"brand":false,"maxFloor":12,"dcore":10.21,"trend":null,"sizes":[{"pyeong":23.7,"area_m2":78.36,"n":5,"floor":10,"sale":2.4,"jeonse":1.87,"wDep":0.6,"wMon":50}]},{"name":"삼성아파트1단지","gu":"진해구","dong":"자은동","built":1993,"lat":35.147923,"lng":128.70846,"dealCount":12,"brand":false,"maxFloor":10,"dcore":9.66,"trend":9.0,"sizes":[{"pyeong":14.9,"area_m2":49.14,"n":5,"floor":1,"sale":0.95},{"pyeong":18.1,"area_m2":59.92,"n":7,"floor":6,"sale":0.99,"jeonse":1.05}]},{"name":"삼성아파트2단지","gu":"진해구","dong":"자은동","built":1993,"lat":35.147933,"lng":128.709837,"dealCount":10,"brand":false,"maxFloor":8,"dcore":9.69,"trend":0.5,"sizes":[{"pyeong":18.1,"area_m2":59.92,"n":10,"floor":5,"sale":0.94,"jeonse":1.13}]},{"name":"대풍","gu":"진해구","dong":"북부동","built":1996,"lat":35.115022,"lng":128.747773,"dealCount":8,"brand":false,"maxFloor":12,"dcore":14.29,"trend":-7.9,"sizes":[{"pyeong":18.1,"area_m2":59.82,"n":8,"floor":6,"sale":0.61,"wDep":0.05,"wMon":40}]},{"name":"창남상가빌라","gu":"진해구","dong":"경화동","built":1992,"lat":35.156724,"lng":128.688499,"dealCount":1,"brand":false,"maxFloor":2,"dcore":8.39,"trend":null,"sizes":[{"pyeong":25.5,"area_m2":84.4,"n":1,"floor":2,"wDep":0.1,"wMon":48}]},{"name":"화천타워","gu":"진해구","dong":"화천동","built":2017,"lat":35.15189,"lng":128.657647,"dealCount":1,"brand":false,"maxFloor":5,"dcore":9.14,"trend":null,"sizes":[{"pyeong":21.5,"area_m2":71.21,"n":1,"floor":5,"wDep":0.1,"wMon":60}]},{"name":"월드메르디앙","gu":"진해구","dong":"자은동","built":2008,"lat":35.150944,"lng":128.712163,"dealCount":12,"brand":false,"maxFloor":14,"dcore":9.42,"trend":15.7,"sizes":[{"pyeong":25.7,"area_m2":84.92,"n":8,"floor":4,"sale":2.56,"jeonse":1.48},{"pyeong":38.2,"area_m2":126.24,"n":4,"floor":14,"sale":3.72}]},{"name":"자은3주공","gu":"진해구","dong":"자은동","built":2006,"lat":35.142852,"lng":128.709803,"dealCount":8,"brand":false,"maxFloor":13,"dcore":10.23,"trend":null,"sizes":[{"pyeong":11.9,"area_m2":39.49,"n":1,"floor":7,"wDep":0.2,"wMon":7},{"pyeong":14.1,"area_m2":46.45,"n":3,"floor":4,"wDep":0.22,"wMon":11},{"pyeong":15.7,"area_m2":51.86,"n":4,"floor":3,"wDep":0.37,"wMon":9}]},{"name":"평화그린파크","gu":"진해구","dong":"제황산동","built":1996,"lat":35.146135,"lng":128.669488,"dealCount":4,"brand":false,"maxFloor":13,"dcore":9.59,"trend":null,"sizes":[{"pyeong":18.1,"area_m2":59.88,"n":2,"floor":13,"jeonse":0.66},{"pyeong":25.7,"area_m2":84.87,"n":2,"floor":6,"sale":1.5}]},{"name":"좋은아침","gu":"진해구","dong":"석동","built":2005,"lat":35.16081,"lng":128.699649,"dealCount":4,"brand":false,"maxFloor":11,"dcore":8.08,"trend":null,"sizes":[{"pyeong":21.2,"area_m2":70.22,"n":4,"floor":2,"sale":1.61,"wDep":0.9,"wMon":30}]},{"name":"수진빌라트","gu":"진해구","dong":"광화동","built":2002,"lat":35.147812,"lng":128.660159,"dealCount":1,"brand":false,"maxFloor":6,"dcore":9.54,"trend":null,"sizes":[{"pyeong":25.6,"area_m2":84.6,"n":1,"floor":6,"jeonse":1.1}]},{"name":"삼정그린코아2단지","gu":"진해구","dong":"경화동","built":2005,"lat":35.16131,"lng":128.682706,"dealCount":5,"brand":false,"maxFloor":12,"dcore":7.86,"trend":null,"sizes":[{"pyeong":25.7,"area_m2":84.89,"n":5,"floor":3,"sale":2.26,"jeonse":1.5}]},{"name":"미래골든빌","gu":"진해구","dong":"태평동","built":2007,"lat":35.146406,"lng":128.659945,"dealCount":5,"brand":false,"maxFloor":12,"dcore":9.69,"trend":null,"sizes":[{"pyeong":24.5,"area_m2":80.9,"n":1,"floor":4,"sale":1.35},{"pyeong":25.7,"area_m2":84.89,"n":4,"floor":11,"sale":1.47,"jeonse":1.32}]},{"name":"송림홈타운","gu":"진해구","dong":"덕산동","built":2002,"lat":35.14501,"lng":128.702754,"dealCount":3,"brand":false,"maxFloor":8,"dcore":9.86,"trend":null,"sizes":[{"pyeong":25.5,"area_m2":84.15,"n":3,"floor":5,"sale":1.27,"wDep":0.2,"wMon":50}]},{"name":"한솔솔파크1단지","gu":"진해구","dong":"석동","built":2009,"lat":35.159306,"lng":128.703871,"dealCount":8,"brand":false,"maxFloor":12,"dcore":8.33,"trend":-0.9,"sizes":[{"pyeong":39.8,"area_m2":131.48,"n":8,"floor":9,"sale":3.85,"jeonse":2.7}]},{"name":"오름텔","gu":"진해구","dong":"광화동","built":2005,"lat":35.147952,"lng":128.658665,"dealCount":1,"brand":false,"maxFloor":7,"dcore":9.55,"trend":null,"sizes":[{"pyeong":25.6,"area_m2":84.78,"n":1,"floor":7,"wDep":0.2,"wMon":55}]},{"name":"삼양프라자5차","gu":"진해구","dong":"이동","built":2003,"lat":35.149385,"lng":128.70228,"dealCount":2,"brand":false,"maxFloor":1,"dcore":9.37,"trend":null,"sizes":[{"pyeong":25.1,"area_m2":83.04,"n":2,"floor":1,"sale":1.14,"wDep":0.1,"wMon":50}]},{"name":"세진맨션","gu":"진해구","dong":"소사동","built":1994,"lat":35.128147,"lng":128.776924,"dealCount":3,"brand":false,"maxFloor":4,"dcore":14.35,"trend":null,"sizes":[{"pyeong":18.1,"area_m2":59.85,"n":2,"floor":3,"sale":0.4,"wDep":0.1,"wMon":20},{"pyeong":20.1,"area_m2":66.39,"n":1,"floor":3,"sale":0.48}]},{"name":"대광","gu":"진해구","dong":"여좌동","built":1996,"lat":35.153995,"lng":128.658313,"dealCount":7,"brand":false,"maxFloor":8,"dcore":8.9,"trend":null,"sizes":[{"pyeong":18.1,"area_m2":59.86,"n":3,"floor":7,"sale":1.2,"wDep":1.0,"wMon":5},{"pyeong":21.8,"area_m2":71.99,"n":1,"floor":4,"sale":1.27},{"pyeong":25.7,"area_m2":84.8,"n":3,"floor":4,"sale":1.33,"wDep":0.2,"wMon":45}]},{"name":"시인의마을","gu":"진해구","dong":"태백동","built":2002,"lat":35.155992,"lng":128.67287,"dealCount":7,"brand":false,"maxFloor":9,"dcore":8.48,"trend":null,"sizes":[{"pyeong":18.1,"area_m2":59.74,"n":7,"floor":6,"sale":1.32,"jeonse":0.8,"wDep":0.1,"wMon":25}]},{"name":"한림","gu":"진해구","dong":"석동","built":1995,"lat":35.157763,"lng":128.693827,"dealCount":6,"brand":false,"maxFloor":5,"dcore":8.33,"trend":null,"sizes":[{"pyeong":14.4,"area_m2":47.72,"n":1,"floor":5,"jeonse":0.66},{"pyeong":18.1,"area_m2":59.72,"n":3,"floor":2,"sale":0.77},{"pyeong":25.1,"area_m2":83.01,"n":2,"floor":5,"sale":1.1}]},{"name":"보람더-좋은","gu":"진해구","dong":"이동","built":2012,"lat":35.157808,"lng":128.69431,"dealCount":2,"brand":false,"maxFloor":9,"dcore":8.33,"trend":null,"sizes":[{"pyeong":22.2,"area_m2":73.22,"n":1,"floor":9,"sale":1.98},{"pyeong":23.5,"area_m2":77.69,"n":1,"floor":5,"wDep":1.0,"wMon":25}]},{"name":"부길","gu":"진해구","dong":"풍호동","built":1996,"lat":35.13711,"lng":128.704203,"dealCount":2,"brand":false,"maxFloor":6,"dcore":10.74,"trend":null,"sizes":[{"pyeong":25.5,"area_m2":84.32,"n":2,"floor":4,"sale":1.63,"jeonse":0.93}]},{"name":"위드필오션베이","gu":"진해구","dong":"대죽동","built":2017,"lat":35.139383,"lng":128.672486,"dealCount":10,"brand":false,"maxFloor":19,"dcore":10.32,"trend":2.4,"sizes":[{"pyeong":24.1,"area_m2":79.72,"n":10,"floor":11,"sale":2.76,"wDep":0.1,"wMon":40}]},{"name":"원창훼미리","gu":"진해구","dong":"경화동","built":1999,"lat":35.16072,"lng":128.693403,"dealCount":8,"brand":false,"maxFloor":3,"dcore":8.0,"trend":null,"sizes":[{"pyeong":18.1,"area_m2":59.68,"n":8,"floor":2,"sale":0.81,"jeonse":0.86,"wDep":0.1,"wMon":35}]},{"name":"한동더푸름","gu":"진해구","dong":"경화동","built":2012,"lat":35.157437,"lng":128.692206,"dealCount":5,"brand":false,"maxFloor":6,"dcore":8.34,"trend":null,"sizes":[{"pyeong":15.5,"area_m2":51.09,"n":1,"floor":2,"sale":1.11},{"pyeong":20.9,"area_m2":69.24,"n":4,"floor":5,"sale":1.28,"jeonse":1.4,"wDep":0.05,"wMon":70}]},{"name":"덕산빌라","gu":"진해구","dong":"경화동","built":1992,"lat":35.157717,"lng":128.688192,"dealCount":1,"brand":false,"maxFloor":4,"dcore":8.28,"trend":null,"sizes":[{"pyeong":25.6,"area_m2":84.78,"n":1,"floor":4,"wDep":0.4,"wMon":20}]},{"name":"경화보람아름채CITY","gu":"진해구","dong":"경화동","built":2016,"lat":35.157113,"lng":128.691119,"dealCount":4,"brand":false,"maxFloor":7,"dcore":8.37,"trend":null,"sizes":[{"pyeong":15.1,"area_m2":49.92,"n":4,"floor":3,"sale":1.56,"wDep":1.0,"wMon":15}]},{"name":"씨스위트빌","gu":"진해구","dong":"경화동","built":2003,"lat":35.157186,"lng":128.684849,"dealCount":4,"brand":false,"maxFloor":4,"dcore":8.32,"trend":null,"sizes":[{"pyeong":25.6,"area_m2":84.5,"n":4,"floor":3,"sale":1.21,"jeonse":1.2}]},{"name":"미르빌","gu":"진해구","dong":"창선동","built":2012,"lat":35.150021,"lng":128.657981,"dealCount":2,"brand":false,"maxFloor":8,"dcore":9.34,"trend":null,"sizes":[{"pyeong":24.2,"area_m2":79.89,"n":2,"floor":8,"wDep":1.2,"wMon":15}]},{"name":"로얄스톤2차","gu":"진해구","dong":"화천동","built":2014,"lat":35.152004,"lng":128.657453,"dealCount":2,"brand":false,"maxFloor":6,"dcore":9.13,"trend":null,"sizes":[{"pyeong":25.6,"area_m2":84.48,"n":2,"floor":5,"sale":1.5,"jeonse":1.32}]},{"name":"덕진그린빌A","gu":"진해구","dong":"이동","built":2000,"lat":35.156979,"lng":128.693784,"dealCount":2,"brand":false,"maxFloor":3,"dcore":8.41,"trend":null,"sizes":[{"pyeong":25.7,"area_m2":84.88,"n":2,"floor":3,"wDep":0.1,"wMon":55}]},{"name":"준영빌","gu":"진해구","dong":"근화동","built":2007,"lat":35.146666,"lng":128.659818,"dealCount":1,"brand":false,"maxFloor":4,"dcore":9.67,"trend":null,"sizes":[{"pyeong":18.9,"area_m2":62.4,"n":1,"floor":4,"jeonse":0.4}]},{"name":"신생비치","gu":"진해구","dong":"태평동","built":1993,"lat":35.143527,"lng":128.670929,"dealCount":2,"brand":false,"maxFloor":14,"dcore":9.87,"trend":null,"sizes":[{"pyeong":25.7,"area_m2":84.92,"n":2,"floor":13,"sale":1.59,"wDep":0.2,"wMon":50}]},{"name":"태연1차","gu":"진해구","dong":"화천동","built":2015,"lat":35.151883,"lng":128.658207,"dealCount":3,"brand":false,"maxFloor":10,"dcore":9.13,"trend":null,"sizes":[{"pyeong":23.9,"area_m2":78.92,"n":3,"floor":6,"sale":1.87,"jeonse":1.2}]},{"name":"덕진디딤돌","gu":"진해구","dong":"경화동","built":2015,"lat":35.159126,"lng":128.680084,"dealCount":3,"brand":false,"maxFloor":5,"dcore":8.1,"trend":null,"sizes":[{"pyeong":17.2,"area_m2":57.0,"n":1,"floor":5,"sale":1.31},{"pyeong":17.5,"area_m2":57.88,"n":2,"floor":4,"sale":1.47,"jeonse":1.2}]},{"name":"금화빌라","gu":"진해구","dong":"여좌동","built":1992,"lat":35.154729,"lng":128.658558,"dealCount":2,"brand":false,"maxFloor":6,"dcore":8.82,"trend":null,"sizes":[{"pyeong":19.2,"area_m2":63.47,"n":1,"floor":6,"wDep":0.05,"wMon":38},{"pyeong":25.7,"area_m2":84.98,"n":1,"floor":2,"sale":0.93}]},{"name":"마산가포부영아파트","gu":"마산합포구","dong":"월영동","built":2016,"lat":35.171154,"lng":128.562236,"dealCount":357,"brand":false,"maxFloor":32,"dcore":11.13,"trend":null,"sizes":[{"pyeong":25.7,"area_m2":84.99,"n":357,"floor":14,"jeonse":1.76,"wDep":1.07,"wMon":28}]},{"name":"상록","gu":"마산합포구","dong":"교방동","built":2008,"lat":35.213701,"lng":128.563408,"dealCount":213,"brand":false,"maxFloor":21,"dcore":7.42,"trend":null,"sizes":[{"pyeong":18.1,"area_m2":59.96,"n":192,"floor":10,"jeonse":1.32,"wDep":1.05,"wMon":8},{"pyeong":25.7,"area_m2":84.98,"n":21,"floor":6,"jeonse":1.66,"wDep":0.33,"wMon":39}]},{"name":"현대3","gu":"마산합포구","dong":"월영동","built":1998,"lat":35.171869,"lng":128.558167,"dealCount":27,"brand":false,"maxFloor":25,"dcore":11.26,"trend":-12.6,"sizes":[{"pyeong":18.1,"area_m2":59.98,"n":15,"floor":7,"sale":1.45,"jeonse":1.3,"wDep":0.1,"wMon":65},{"pyeong":25.7,"area_m2":84.91,"n":12,"floor":16,"sale":1.85,"jeonse":1.7,"wDep":0.3,"wMon":70}]},{"name":"창원롯데캐슬프리미어","gu":"마산합포구","dong":"교방동","built":2020,"lat":35.215395,"lng":128.567021,"dealCount":198,"brand":true,"maxFloor":25,"dcore":7.05,"trend":-1.4,"sizes":[{"pyeong":12.0,"area_m2":39.8,"n":58,"floor":13,"sale":2.06,"jeonse":1.87,"wDep":0.4,"wMon":57},{"pyeong":15.0,"area_m2":49.57,"n":12,"floor":14,"sale":2.73,"jeonse":2.2},{"pyeong":18.1,"area_m2":59.98,"n":23,"floor":12,"sale":3.94,"jeonse":3.1,"wDep":1.0,"wMon":65},{"pyeong":20.2,"area_m2":66.64,"n":5,"floor":16,"sale":4.1,"wDep":1.0,"wMon":80},{"pyeong":25.7,"area_m2":84.95,"n":100,"floor":9,"sale":4.25,"jeonse":3.95,"wDep":3.0,"wMon":15}]},{"name":"무학산벽산블루밍2단지","gu":"마산합포구","dong":"교방동","built":2009,"lat":35.215518,"lng":128.56188,"dealCount":52,"brand":false,"maxFloor":22,"dcore":7.4,"trend":-2.9,"sizes":[{"pyeong":18.1,"area_m2":59.86,"n":9,"floor":10,"sale":2.38,"jeonse":2.0,"wDep":1.0,"wMon":50},{"pyeong":22.3,"area_m2":73.87,"n":3,"floor":9,"sale":2.58,"jeonse":2.25,"wDep":0.3,"wMon":60},{"pyeong":25.7,"area_m2":84.99,"n":29,"floor":8,"sale":2.6,"jeonse":2.5,"wDep":0.5,"wMon":60},{"pyeong":37.0,"area_m2":122.23,"n":8,"floor":14,"sale":3.63,"jeonse":2.8},{"pyeong":40.7,"area_m2":134.4,"n":3,"floor":5,"sale":3.72,"wDep":0.2,"wMon":130}]},{"name":"현대2","gu":"마산합포구","dong":"월영동","built":1998,"lat":35.173971,"lng":128.558155,"dealCount":35,"brand":false,"maxFloor":22,"dcore":11.06,"trend":-13.8,"sizes":[{"pyeong":18.1,"area_m2":59.98,"n":22,"floor":9,"sale":1.45,"jeonse":1.4,"wDep":0.1,"wMon":65},{"pyeong":25.5,"area_m2":84.19,"n":1,"floor":15,"jeonse":1.68},{"pyeong":25.7,"area_m2":84.91,"n":12,"floor":5,"sale":1.78,"jeonse":1.7,"wDep":0.0,"wMon":50}]},{"name":"화인아트빌라2","gu":"마산합포구","dong":"월영동","built":1992,"lat":35.174391,"lng":128.555742,"dealCount":27,"brand":false,"maxFloor":15,"dcore":11.14,"trend":9.1,"sizes":[{"pyeong":18.3,"area_m2":60.37,"n":4,"floor":8,"sale":1.1,"wDep":0.1,"wMon":40},{"pyeong":20.7,"area_m2":68.33,"n":8,"floor":6,"sale":1.05,"jeonse":0.99},{"pyeong":25.7,"area_m2":84.97,"n":15,"floor":9,"sale":1.15,"jeonse":1.21,"wDep":0.88,"wMon":20}]},{"name":"마창대교반도유보라아이비파크","gu":"마산합포구","dong":"가포동","built":2024,"lat":35.157081,"lng":128.574878,"dealCount":136,"brand":false,"maxFloor":25,"dcore":12.02,"trend":-0.4,"sizes":[{"pyeong":22.7,"area_m2":74.97,"n":83,"floor":12,"sale":2.75,"jeonse":1.96,"wDep":0.3,"wMon":100},{"pyeong":25.7,"area_m2":84.98,"n":53,"floor":11,"sale":3.0,"jeonse":2.1,"wDep":0.2,"wMon":95}]},{"name":"중흥S클래스프라디움3차","gu":"마산합포구","dong":"현동","built":2017,"lat":35.147979,"lng":128.559696,"dealCount":86,"brand":false,"maxFloor":25,"dcore":13.5,"trend":0.1,"sizes":[{"pyeong":25.7,"area_m2":84.98,"n":69,"floor":10,"sale":2.86,"jeonse":2.4,"wDep":0.3,"wMon":100},{"pyeong":28.8,"area_m2":95.28,"n":5,"floor":2,"sale":3.32},{"pyeong":31.9,"area_m2":105.32,"n":8,"floor":20,"sale":3.4,"jeonse":2.9},{"pyeong":32.6,"area_m2":107.93,"n":4,"floor":1,"jeonse":2.49,"wDep":0.3,"wMon":100}]},{"name":"창원푸르지오더플래티넘2단지","gu":"마산합포구","dong":"교방동","built":2024,"lat":35.210572,"lng":128.569657,"dealCount":153,"brand":true,"maxFloor":26,"dcore":7.25,"trend":1.2,"sizes":[{"pyeong":18.1,"area_m2":59.67,"n":8,"floor":11,"sale":3.4,"jeonse":2.42,"wDep":0.2,"wMon":90},{"pyeong":22.4,"area_m2":74.17,"n":13,"floor":13,"sale":4.1,"jeonse":2.57},{"pyeong":25.4,"area_m2":84.03,"n":29,"floor":19,"sale":4.6,"jeonse":3.2,"wDep":0.8,"wMon":120},{"pyeong":25.7,"area_m2":84.81,"n":81,"floor":15,"sale":4.53,"jeonse":3.1,"wDep":0.3,"wMon":110},{"pyeong":31.2,"area_m2":103.19,"n":22,"floor":12,"sale":5.5,"jeonse":4.0}]},{"name":"창원푸르지오더플래티넘3단지","gu":"마산합포구","dong":"교방동","built":2024,"lat":35.210572,"lng":128.569657,"dealCount":158,"brand":true,"maxFloor":25,"dcore":7.25,"trend":3.6,"sizes":[{"pyeong":11.8,"area_m2":39.16,"n":90,"floor":13,"jeonse":1.57},{"pyeong":17.9,"area_m2":59.09,"n":16,"floor":12,"sale":3.68,"jeonse":2.8,"wDep":2.0,"wMon":25},{"pyeong":22.4,"area_m2":74.17,"n":13,"floor":13,"sale":3.9,"jeonse":2.6,"wDep":2.0,"wMon":40},{"pyeong":25.4,"area_m2":84.03,"n":16,"floor":15,"sale":4.62,"jeonse":3.6,"wDep":0.5,"wMon":100},{"pyeong":25.5,"area_m2":84.31,"n":23,"floor":11,"sale":4.56,"jeonse":2.94}]},{"name":"성원","gu":"마산합포구","dong":"지산리","built":1992,"lat":35.11721,"lng":128.463366,"dealCount":9,"brand":false,"maxFloor":9,"dcore":21.28,"trend":18.9,"sizes":[{"pyeong":18.1,"area_m2":59.98,"n":1,"floor":6,"sale":0.56},{"pyeong":21.1,"area_m2":69.76,"n":8,"floor":7,"sale":0.63,"wDep":0.05,"wMon":35}]},{"name":"삼익","gu":"마산합포구","dong":"신포동2가","built":1979,"lat":35.201199,"lng":128.571265,"dealCount":34,"brand":false,"maxFloor":12,"dcore":7.93,"trend":5.6,"sizes":[{"pyeong":13.6,"area_m2":44.86,"n":7,"floor":6,"sale":0.9,"jeonse":0.8,"wDep":0.2,"wMon":35},{"pyeong":18.9,"area_m2":62.64,"n":6,"floor":7,"sale":1.2,"wDep":0.2,"wMon":30},{"pyeong":25.5,"area_m2":84.26,"n":10,"floor":4,"sale":1.41,"jeonse":1.3,"wDep":0.8,"wMon":30},{"pyeong":25.5,"area_m2":84.43,"n":7,"floor":10,"sale":1.15,"jeonse":1.35,"wDep":0.2,"wMon":60},{"pyeong":33.6,"area_m2":110.98,"n":1,"floor":11,"wDep":0.3,"wMon":5},{"pyeong":42.9,"area_m2":141.98,"n":3,"floor":7,"jeonse":1.6,"wDep":0.2,"wMon":80}]},{"name":"산호경동리인","gu":"마산합포구","dong":"산호동","built":2018,"lat":35.215452,"lng":128.5888,"dealCount":77,"brand":false,"maxFloor":34,"dcore":5.72,"trend":0.8,"sizes":[{"pyeong":20.6,"area_m2":68.0,"n":21,"floor":17,"sale":2.85,"jeonse":3.3,"wDep":2.6,"wMon":20},{"pyeong":22.3,"area_m2":73.79,"n":32,"floor":16,"sale":3.25,"jeonse":2.6},{"pyeong":25.7,"area_m2":85.0,"n":23,"floor":18,"sale":3.35,"jeonse":2.95,"wDep":2.0,"wMon":30},{"pyeong":29.4,"area_m2":97.06,"n":1,"floor":31,"sale":3.9}]},{"name":"경동메르빌","gu":"마산합포구","dong":"월포동","built":2005,"lat":35.192933,"lng":128.567699,"dealCount":49,"brand":false,"maxFloor":24,"dcore":8.85,"trend":7.6,"sizes":[{"pyeong":18.0,"area_m2":59.51,"n":13,"floor":20,"sale":2.25,"jeonse":2.08,"wDep":0.2,"wMon":80},{"pyeong":21.6,"area_m2":71.3,"n":4,"floor":10,"sale":2.6,"wDep":0.2,"wMon":80},{"pyeong":25.6,"area_m2":84.69,"n":28,"floor":11,"sale":3.3,"jeonse":2.49,"wDep":0.3,"wMon":70},{"pyeong":35.8,"area_m2":118.25,"n":4,"floor":11,"sale":4.1,"jeonse":3.5}]},{"name":"마린애시앙부영","gu":"마산합포구","dong":"월영동","built":2019,"lat":35.174365,"lng":128.567392,"dealCount":694,"brand":false,"maxFloor":31,"dcore":10.59,"trend":5.2,"sizes":[{"pyeong":25.7,"area_m2":84.95,"n":537,"floor":15,"sale":3.85,"jeonse":3.2,"wDep":0.45,"wMon":110},{"pyeong":37.7,"area_m2":124.66,"n":69,"floor":12,"sale":6.08,"jeonse":4.2,"wDep":0.5,"wMon":180},{"pyeong":45.3,"area_m2":149.6,"n":88,"floor":17,"sale":5.93,"jeonse":4.5,"wDep":2.0,"wMon":150}]},{"name":"두산2","gu":"마산합포구","dong":"해운동","built":1993,"lat":35.179292,"lng":128.564377,"dealCount":25,"brand":false,"maxFloor":18,"dcore":10.26,"trend":-2.9,"sizes":[{"pyeong":18.0,"area_m2":59.34,"n":14,"floor":5,"sale":1.43,"jeonse":1.25,"wDep":1.15,"wMon":15},{"pyeong":25.7,"area_m2":84.84,"n":6,"floor":7,"sale":2.15,"jeonse":1.87},{"pyeong":40.1,"area_m2":132.72,"n":5,"floor":14,"sale":2.89,"jeonse":2.35}]},{"name":"엘에이치그린품애","gu":"마산합포구","dong":"현동","built":2015,"lat":35.142936,"lng":128.556809,"dealCount":43,"brand":false,"maxFloor":18,"dcore":14.11,"trend":-3.5,"sizes":[{"pyeong":18.1,"area_m2":59.8,"n":21,"floor":9,"sale":1.6,"jeonse":1.59,"wDep":0.1,"wMon":60},{"pyeong":22.6,"area_m2":74.74,"n":6,"floor":7,"sale":2.08,"jeonse":1.9,"wDep":0.2,"wMon":70},{"pyeong":25.7,"area_m2":84.91,"n":16,"floor":8,"sale":2.2,"jeonse":2.0,"wDep":0.3,"wMon":85}]},{"name":"화인","gu":"마산합포구","dong":"완월동","built":1994,"lat":35.195627,"lng":128.557666,"dealCount":22,"brand":false,"maxFloor":16,"dcore":9.19,"trend":-3.7,"sizes":[{"pyeong":18.1,"area_m2":59.93,"n":13,"floor":11,"sale":0.93,"jeonse":0.85,"wDep":0.6,"wMon":20},{"pyeong":25.5,"area_m2":84.22,"n":7,"floor":8,"sale":1.16,"jeonse":1.0},{"pyeong":41.4,"area_m2":136.92,"n":2,"floor":9,"sale":1.8}]},{"name":"한일비치맨션아파트","gu":"마산합포구","dong":"해운동","built":1996,"lat":35.177953,"lng":128.566634,"dealCount":12,"brand":false,"maxFloor":17,"dcore":10.28,"trend":null,"sizes":[{"pyeong":18.2,"area_m2":60.0,"n":4,"floor":15,"sale":1.27,"jeonse":1.27},{"pyeong":19.9,"area_m2":65.7,"n":5,"floor":11,"sale":1.35,"jeonse":1.35,"wDep":0.3,"wMon":48},{"pyeong":43.3,"area_m2":143.04,"n":3,"floor":11,"sale":2.6,"jeonse":2.3,"wDep":0.2,"wMon":100}]},{"name":"현대건설1차","gu":"마산합포구","dong":"월영동","built":1998,"lat":35.174837,"lng":128.557371,"dealCount":40,"brand":false,"maxFloor":21,"dcore":11.02,"trend":-8.2,"sizes":[{"pyeong":18.1,"area_m2":59.7,"n":20,"floor":11,"sale":1.3,"jeonse":0.2,"wDep":0.1,"wMon":60},{"pyeong":25.7,"area_m2":84.97,"n":20,"floor":6,"sale":1.65,"jeonse":1.67,"wDep":0.45,"wMon":70}]},{"name":"신화하니엘더마린2단지","gu":"마산합포구","dong":"진동리","built":2017,"lat":35.111922,"lng":128.488756,"dealCount":13,"brand":false,"maxFloor":24,"dcore":20.26,"trend":0.7,"sizes":[{"pyeong":18.1,"area_m2":59.98,"n":13,"floor":15,"sale":1.4,"wDep":0.1,"wMon":55}]},{"name":"한일유앤아이","gu":"마산합포구","dong":"진동리","built":2008,"lat":35.120912,"lng":128.488362,"dealCount":42,"brand":false,"maxFloor":15,"dcore":19.5,"trend":5.9,"sizes":[{"pyeong":25.7,"area_m2":84.99,"n":26,"floor":5,"sale":1.87,"jeonse":1.45,"wDep":0.4,"wMon":40},{"pyeong":37.5,"area_m2":123.87,"n":11,"floor":6,"sale":2.79,"jeonse":2.1},{"pyeong":44.6,"area_m2":147.57,"n":1,"floor":14,"jeonse":2.75},{"pyeong":52.6,"area_m2":174.03,"n":4,"floor":10,"sale":3.15,"jeonse":2.8}]},{"name":"경남","gu":"마산합포구","dong":"창포동2가","built":1990,"lat":35.183728,"lng":128.562087,"dealCount":8,"brand":false,"maxFloor":9,"dcore":9.97,"trend":null,"sizes":[{"pyeong":23.2,"area_m2":76.83,"n":1,"floor":6,"sale":1.73},{"pyeong":25.6,"area_m2":84.59,"n":4,"floor":4,"sale":1.76,"jeonse":1.5,"wDep":0.7,"wMon":50},{"pyeong":39.0,"area_m2":128.94,"n":3,"floor":5,"sale":2.5,"jeonse":1.8,"wDep":0.36,"wMon":40}]},{"name":"두산3","gu":"마산합포구","dong":"해운동","built":1995,"lat":35.178245,"lng":128.565215,"dealCount":52,"brand":false,"maxFloor":18,"dcore":10.32,"trend":0.3,"sizes":[{"pyeong":18.0,"area_m2":59.34,"n":25,"floor":9,"sale":1.52,"jeonse":1.28,"wDep":0.2,"wMon":55},{"pyeong":25.7,"area_m2":84.84,"n":27,"floor":7,"sale":1.89,"jeonse":1.6,"wDep":1.0,"wMon":35}]},{"name":"신포동이담채","gu":"마산합포구","dong":"신포동2가","built":2016,"lat":35.203147,"lng":128.574277,"dealCount":8,"brand":false,"maxFloor":13,"dcore":7.59,"trend":null,"sizes":[{"pyeong":14.6,"area_m2":48.21,"n":2,"floor":10,"wDep":0.5,"wMon":50},{"pyeong":16.6,"area_m2":54.98,"n":3,"floor":8,"jeonse":1.4,"wDep":0.5,"wMon":40},{"pyeong":19.1,"area_m2":63.05,"n":3,"floor":2,"sale":1.9}]},{"name":"국제비치타운","gu":"마산합포구","dong":"산호동","built":1996,"lat":35.209589,"lng":128.584674,"dealCount":25,"brand":false,"maxFloor":21,"dcore":6.47,"trend":3.3,"sizes":[{"pyeong":17.9,"area_m2":59.07,"n":14,"floor":9,"sale":1.39,"jeonse":1.15,"wDep":0.2,"wMon":50},{"pyeong":25.5,"area_m2":84.42,"n":10,"floor":11,"sale":1.8,"jeonse":1.4,"wDep":0.05,"wMon":40},{"pyeong":27.5,"area_m2":91.02,"n":1,"floor":9,"jeonse":1.8}]},{"name":"월영동SK오션뷰","gu":"마산합포구","dong":"월영동","built":2017,"lat":35.176151,"lng":128.559468,"dealCount":85,"brand":false,"maxFloor":31,"dcore":10.8,"trend":-0.2,"sizes":[{"pyeong":18.1,"area_m2":60.0,"n":5,"floor":8,"sale":3.25,"jeonse":2.2,"wDep":0.2,"wMon":85},{"pyeong":22.4,"area_m2":73.92,"n":10,"floor":18,"sale":3.58,"jeonse":2.39,"wDep":0.1,"wMon":110},{"pyeong":25.7,"area_m2":85.0,"n":62,"floor":17,"sale":3.95,"jeonse":3.0,"wDep":2.6,"wMon":50},{"pyeong":30.5,"area_m2":100.77,"n":7,"floor":14,"sale":4.95,"jeonse":3.9},{"pyeong":34.7,"area_m2":114.66,"n":1,"floor":19,"sale":6.95}]},{"name":"월영동아","gu":"마산합포구","dong":"월영동","built":1998,"lat":35.172951,"lng":128.560462,"dealCount":57,"brand":false,"maxFloor":20,"dcore":11.04,"trend":-1.5,"sizes":[{"pyeong":18.0,"area_m2":59.53,"n":26,"floor":13,"sale":1.5,"jeonse":1.43,"wDep":0.7,"wMon":40},{"pyeong":25.7,"area_m2":84.84,"n":31,"floor":10,"sale":1.81,"jeonse":1.68,"wDep":0.1,"wMon":85}]},{"name":"산호베스티움","gu":"마산합포구","dong":"산호동","built":2016,"lat":35.208948,"lng":128.58203,"dealCount":29,"brand":false,"maxFloor":27,"dcore":6.66,"trend":-0.9,"sizes":[{"pyeong":16.0,"area_m2":52.96,"n":17,"floor":19,"sale":2.11,"jeonse":1.65,"wDep":0.5,"wMon":60},{"pyeong":17.9,"area_m2":59.12,"n":1,"floor":14,"sale":2.49},{"pyeong":25.2,"area_m2":83.19,"n":11,"floor":12,"sale":2.94,"jeonse":2.79}]},{"name":"오동동다:숲","gu":"마산합포구","dong":"오동동","built":2017,"lat":35.208015,"lng":128.580626,"dealCount":15,"brand":false,"maxFloor":18,"dcore":6.82,"trend":-4.7,"sizes":[{"pyeong":9.3,"area_m2":30.82,"n":1,"floor":11,"wDep":0.1,"wMon":50},{"pyeong":13.6,"area_m2":45.12,"n":14,"floor":12,"sale":1.43,"jeonse":1.35,"wDep":0.3,"wMon":60}]},{"name":"창원칸타빌오션뷰","gu":"마산합포구","dong":"산호동","built":2021,"lat":35.211059,"lng":128.58526,"dealCount":87,"brand":false,"maxFloor":40,"dcore":6.3,"trend":-0.3,"sizes":[{"pyeong":19.3,"area_m2":63.84,"n":8,"floor":27,"sale":3.0,"jeonse":2.55},{"pyeong":22.7,"area_m2":74.89,"n":79,"floor":22,"sale":3.13,"jeonse":2.9,"wDep":0.7,"wMon":90}]},{"name":"마산진동협성엠파이어","gu":"마산합포구","dong":"진동리","built":2014,"lat":35.120252,"lng":128.48759,"dealCount":31,"brand":false,"maxFloor":19,"dcore":19.6,"trend":-9.0,"sizes":[{"pyeong":18.1,"area_m2":60.0,"n":17,"floor":9,"sale":1.6,"jeonse":1.4,"wDep":0.1,"wMon":70},{"pyeong":21.7,"area_m2":71.68,"n":2,"floor":3,"sale":1.78,"wDep":0.2,"wMon":70},{"pyeong":25.7,"area_m2":84.98,"n":12,"floor":7,"sale":2.06,"wDep":0.3,"wMon":70}]},{"name":"현대5","gu":"마산합포구","dong":"월영동","built":1998,"lat":35.171642,"lng":128.558159,"dealCount":44,"brand":false,"maxFloor":22,"dcore":11.28,"trend":-4.6,"sizes":[{"pyeong":18.1,"area_m2":59.98,"n":18,"floor":9,"sale":1.31,"jeonse":1.3,"wDep":0.2,"wMon":60},{"pyeong":22.5,"area_m2":74.52,"n":9,"floor":11,"sale":1.4,"jeonse":1.48,"wDep":0.17,"wMon":70},{"pyeong":25.7,"area_m2":84.94,"n":15,"floor":6,"sale":1.89,"jeonse":1.66,"wDep":0.3,"wMon":75},{"pyeong":34.6,"area_m2":114.24,"n":2,"floor":11,"sale":2.49,"jeonse":2.09}]},{"name":"우성","gu":"마산합포구","dong":"자산동","built":1987,"lat":35.203966,"lng":128.55977,"dealCount":6,"brand":false,"maxFloor":5,"dcore":8.39,"trend":null,"sizes":[{"pyeong":15.7,"area_m2":51.77,"n":6,"floor":3,"sale":0.91,"jeonse":0.68,"wDep":0.05,"wMon":40}]},{"name":"월영동아2","gu":"마산합포구","dong":"월영동","built":1998,"lat":35.171857,"lng":128.558464,"dealCount":89,"brand":false,"maxFloor":22,"dcore":11.24,"trend":-7.9,"sizes":[{"pyeong":18.0,"area_m2":59.62,"n":53,"floor":10,"sale":1.25,"jeonse":1.35,"wDep":0.2,"wMon":70},{"pyeong":25.7,"area_m2":84.97,"n":30,"floor":6,"sale":2.15,"jeonse":1.77,"wDep":1.1,"wMon":30},{"pyeong":28.6,"area_m2":94.49,"n":1,"floor":14,"wDep":0.25,"wMon":60},{"pyeong":33.0,"area_m2":109.03,"n":1,"floor":15,"jeonse":1.6},{"pyeong":40.8,"area_m2":134.94,"n":4,"floor":10,"sale":2.91}]},{"name":"신추산","gu":"마산합포구","dong":"추산동","built":1996,"lat":35.207025,"lng":128.570195,"dealCount":19,"brand":false,"maxFloor":9,"dcore":7.5,"trend":-15.5,"sizes":[{"pyeong":12.2,"area_m2":40.18,"n":10,"floor":6,"sale":0.45,"jeonse":0.3,"wDep":0.15,"wMon":22},{"pyeong":18.1,"area_m2":59.71,"n":9,"floor":5,"sale":0.91,"wDep":0.05,"wMon":30}]},{"name":"무학자이","gu":"마산합포구","dong":"교원동","built":2011,"lat":35.215174,"lng":128.568933,"dealCount":55,"brand":true,"maxFloor":23,"dcore":6.94,"trend":0.1,"sizes":[{"pyeong":18.1,"area_m2":59.93,"n":11,"floor":15,"sale":2.96,"wDep":0.3,"wMon":80},{"pyeong":25.7,"area_m2":84.99,"n":26,"floor":11,"sale":3.55,"jeonse":2.85},{"pyeong":32.0,"area_m2":105.88,"n":5,"floor":5,"sale":3.95,"jeonse":2.9,"wDep":0.8,"wMon":90},{"pyeong":33.9,"area_m2":112.12,"n":9,"floor":8,"sale":4.32,"jeonse":3.15,"wDep":1.1,"wMon":80},{"pyeong":38.8,"area_m2":128.39,"n":4,"floor":12,"sale":4.55}]},{"name":"대내주공그린빌","gu":"마산합포구","dong":"대내동","built":2004,"lat":35.181965,"lng":128.557639,"dealCount":31,"brand":false,"maxFloor":18,"dcore":10.36,"trend":5.7,"sizes":[{"pyeong":13.7,"area_m2":45.32,"n":24,"floor":8,"sale":1.38,"jeonse":1.2,"wDep":0.2,"wMon":50},{"pyeong":16.1,"area_m2":53.12,"n":4,"floor":9,"sale":1.5,"wDep":0.2,"wMon":55},{"pyeong":18.0,"area_m2":59.64,"n":3,"floor":8,"sale":2.0,"wDep":0.2,"wMon":60}]},{"name":"대동씨코아상가","gu":"마산합포구","dong":"해운동","built":1993,"lat":35.179759,"lng":128.562476,"dealCount":22,"brand":false,"maxFloor":21,"dcore":10.31,"trend":-9.2,"sizes":[{"pyeong":21.3,"area_m2":70.4,"n":22,"floor":11,"sale":1.49,"jeonse":1.18,"wDep":0.6,"wMon":30}]},{"name":"창원현동휴튼","gu":"마산합포구","dong":"현동","built":2025,"lat":35.145322,"lng":128.548262,"dealCount":439,"brand":false,"maxFloor":25,"dcore":14.23,"trend":null,"sizes":[{"pyeong":15.7,"area_m2":51.8,"n":170,"floor":9,"wDep":0.73,"wMon":26},{"pyeong":18.1,"area_m2":59.91,"n":269,"floor":11,"wDep":1.1,"wMon":14}]},{"name":"창원가포안단테","gu":"마산합포구","dong":"가포동","built":2023,"lat":35.157187,"lng":128.582094,"dealCount":19,"brand":false,"maxFloor":17,"dcore":11.77,"trend":6.7,"sizes":[{"pyeong":18.1,"area_m2":59.97,"n":19,"floor":12,"sale":2.23,"jeonse":1.65,"wDep":0.5,"wMon":60}]},{"name":"삼부햇살마루","gu":"마산합포구","dong":"문화동","built":2004,"lat":35.186942,"lng":128.556314,"dealCount":4,"brand":false,"maxFloor":9,"dcore":10.0,"trend":null,"sizes":[{"pyeong":25.7,"area_m2":84.92,"n":3,"floor":8,"sale":1.85,"wDep":1.2,"wMon":25},{"pyeong":33.6,"area_m2":111.15,"n":1,"floor":2,"jeonse":1.56}]},{"name":"중앙마린파이브아파트","gu":"마산합포구","dong":"오동동","built":2014,"lat":35.206599,"lng":128.583549,"dealCount":41,"brand":false,"maxFloor":29,"dcore":6.8,"trend":0.2,"sizes":[{"pyeong":21.2,"area_m2":70.14,"n":14,"floor":19,"sale":3.0,"jeonse":2.6,"wDep":2.0,"wMon":30},{"pyeong":25.7,"area_m2":84.98,"n":27,"floor":16,"sale":3.2,"jeonse":2.65,"wDep":0.3,"wMon":100}]},{"name":"중흥S클래스프라디움1차","gu":"마산합포구","dong":"현동","built":2014,"lat":35.150768,"lng":128.551958,"dealCount":23,"brand":false,"maxFloor":22,"dcore":13.55,"trend":2.6,"sizes":[{"pyeong":25.7,"area_m2":84.99,"n":23,"floor":8,"sale":2.4,"jeonse":2.16,"wDep":0.3,"wMon":65}]},{"name":"한우아파트","gu":"마산합포구","dong":"자산동","built":1986,"lat":35.202859,"lng":128.559499,"dealCount":46,"brand":false,"maxFloor":5,"dcore":8.49,"trend":-5.5,"sizes":[{"pyeong":14.5,"area_m2":47.91,"n":7,"floor":2,"sale":0.67,"wDep":0.05,"wMon":25},{"pyeong":15.4,"area_m2":50.79,"n":15,"floor":3,"sale":0.99,"jeonse":0.62,"wDep":0.1,"wMon":28},{"pyeong":17.5,"area_m2":57.85,"n":6,"floor":2,"sale":0.93,"jeonse":0.73,"wDep":0.1,"wMon":40},{"pyeong":17.5,"area_m2":57.96,"n":9,"floor":2,"sale":0.92,"jeonse":0.7,"wDep":0.5,"wMon":24},{"pyeong":21.1,"area_m2":69.81,"n":6,"floor":5,"sale":1.1,"jeonse":0.77,"wDep":0.2,"wMon":20},{"pyeong":25.0,"area_m2":82.68,"n":3,"floor":2,"sale":1.35,"jeonse":1.04}]},{"name":"롯데빌리지","gu":"마산합포구","dong":"창포동3가","built":2004,"lat":35.181761,"lng":128.560946,"dealCount":51,"brand":false,"maxFloor":11,"dcore":10.21,"trend":null,"sizes":[{"pyeong":8.1,"area_m2":26.87,"n":22,"floor":7,"sale":0.72,"jeonse":0.6,"wDep":0.05,"wMon":38},{"pyeong":9.2,"area_m2":30.57,"n":24,"floor":6,"sale":0.7,"wDep":0.05,"wMon":43},{"pyeong":9.8,"area_m2":32.33,"n":4,"floor":5,"wDep":0.05,"wMon":45},{"pyeong":12.6,"area_m2":41.78,"n":1,"floor":4,"wDep":0.05,"wMon":55}]},{"name":"평화리버타운","gu":"마산합포구","dong":"해운동","built":1999,"lat":35.180163,"lng":128.56552,"dealCount":42,"brand":false,"maxFloor":17,"dcore":10.13,"trend":null,"sizes":[{"pyeong":8.9,"area_m2":29.44,"n":40,"floor":10,"sale":0.7,"jeonse":0.55,"wDep":0.48,"wMon":9},{"pyeong":9.6,"area_m2":31.81,"n":2,"floor":12,"jeonse":0.64,"wDep":0.05,"wMon":35}]},{"name":"자산씨티빌","gu":"마산합포구","dong":"자산동","built":2003,"lat":35.204573,"lng":128.560018,"dealCount":2,"brand":false,"maxFloor":6,"dcore":8.33,"trend":null,"sizes":[{"pyeong":24.1,"area_m2":79.62,"n":2,"floor":6,"wDep":0.3,"wMon":35}]},{"name":"경동메르빌2차","gu":"마산합포구","dong":"중앙동2가","built":2007,"lat":35.194303,"lng":128.567132,"dealCount":23,"brand":false,"maxFloor":15,"dcore":8.76,"trend":16.0,"sizes":[{"pyeong":18.1,"area_m2":59.98,"n":7,"floor":6,"sale":2.02,"jeonse":1.8},{"pyeong":25.7,"area_m2":85.0,"n":16,"floor":9,"sale":2.97,"jeonse":2.5,"wDep":1.2,"wMon":50}]},{"name":"마산신화하니엘더마린","gu":"마산합포구","dong":"진동리","built":2016,"lat":35.111614,"lng":128.487235,"dealCount":24,"brand":false,"maxFloor":26,"dcore":20.37,"trend":-2.1,"sizes":[{"pyeong":14.2,"area_m2":47.07,"n":10,"floor":10,"sale":1.3,"jeonse":1.1,"wDep":0.4,"wMon":50},{"pyeong":18.1,"area_m2":59.93,"n":5,"floor":11,"sale":1.49,"wDep":0.2,"wMon":55},{"pyeong":25.6,"area_m2":84.75,"n":9,"floor":24,"sale":2.11,"jeonse":1.76,"wDep":0.85,"wMon":40}]},{"name":"창원현동엘에이치아파트","gu":"마산합포구","dong":"우산동","built":2015,"lat":35.152344,"lng":128.554142,"dealCount":32,"brand":false,"maxFloor":19,"dcore":13.3,"trend":null,"sizes":[{"pyeong":8.1,"area_m2":26.81,"n":1,"floor":10,"wDep":0.33,"wMon":11},{"pyeong":10.2,"area_m2":33.82,"n":5,"floor":6,"wDep":0.32,"wMon":9},{"pyeong":11.2,"area_m2":36.92,"n":13,"floor":7,"wDep":0.14,"wMon":22},{"pyeong":14.2,"area_m2":46.89,"n":8,"floor":8,"wDep":0.33,"wMon":37},{"pyeong":15.7,"area_m2":51.84,"n":5,"floor":8,"wDep":0.61,"wMon":20}]},{"name":"무궁화","gu":"마산합포구","dong":"산호동","built":1982,"lat":35.21733,"lng":128.588753,"dealCount":8,"brand":false,"maxFloor":5,"dcore":5.56,"trend":null,"sizes":[{"pyeong":16.3,"area_m2":53.88,"n":6,"floor":3,"sale":0.59,"wDep":0.2,"wMon":30},{"pyeong":17.9,"area_m2":59.17,"n":2,"floor":3,"sale":0.92,"jeonse":0.4}]},{"name":"동하라일락","gu":"마산합포구","dong":"중앙동3가","built":1993,"lat":35.199661,"lng":128.568666,"dealCount":1,"brand":false,"maxFloor":6,"dcore":8.21,"trend":null,"sizes":[{"pyeong":18.0,"area_m2":59.49,"n":1,"floor":6,"wDep":0.2,"wMon":55}]},{"name":"다조맨션","gu":"마산합포구","dong":"교방동","built":1997,"lat":35.213021,"lng":128.566049,"dealCount":2,"brand":false,"maxFloor":5,"dcore":7.29,"trend":null,"sizes":[{"pyeong":20.2,"area_m2":66.72,"n":1,"floor":2,"jeonse":0.83},{"pyeong":20.8,"area_m2":68.7,"n":1,"floor":5,"sale":1.32}]},{"name":"창원가포엘에이치아파트1단지","gu":"마산합포구","dong":"가포동","built":2020,"lat":35.158633,"lng":128.58393,"dealCount":34,"brand":false,"maxFloor":14,"dcore":11.57,"trend":null,"sizes":[{"pyeong":5.1,"area_m2":16.94,"n":3,"floor":9,"wDep":0.12,"wMon":6},{"pyeong":8.1,"area_m2":26.85,"n":4,"floor":10,"wDep":0.22,"wMon":6},{"pyeong":11.1,"area_m2":36.77,"n":17,"floor":10,"wDep":0.27,"wMon":15},{"pyeong":14.1,"area_m2":46.72,"n":10,"floor":5,"wDep":0.09,"wMon":29}]},{"name":"한성가고파","gu":"마산합포구","dong":"월포동","built":1991,"lat":35.190012,"lng":128.564594,"dealCount":3,"brand":false,"maxFloor":12,"dcore":9.28,"trend":null,"sizes":[{"pyeong":25.7,"area_m2":84.82,"n":3,"floor":7,"sale":1.7,"wDep":0.8,"wMon":50}]},{"name":"월영마크리움주상복합","gu":"마산합포구","dong":"월남동5가","built":2017,"lat":35.181297,"lng":128.558248,"dealCount":18,"brand":false,"maxFloor":27,"dcore":10.39,"trend":3.0,"sizes":[{"pyeong":19.2,"area_m2":63.58,"n":18,"floor":11,"sale":2.73,"jeonse":2.42,"wDep":0.3,"wMon":50}]},{"name":"기산상가","gu":"마산합포구","dong":"오동동","built":1997,"lat":35.20527,"lng":128.580814,"dealCount":12,"brand":false,"maxFloor":13,"dcore":7.06,"trend":-5.1,"sizes":[{"pyeong":13.3,"area_m2":43.98,"n":6,"floor":7,"sale":0.77,"wDep":0.1,"wMon":40},{"pyeong":18.1,"area_m2":59.92,"n":1,"floor":3,"sale":1.09},{"pyeong":25.6,"area_m2":84.48,"n":5,"floor":5,"sale":1.65,"jeonse":0.6}]},{"name":"자산경남상가","gu":"마산합포구","dong":"자산동","built":1994,"lat":35.206307,"lng":128.565114,"dealCount":7,"brand":false,"maxFloor":10,"dcore":7.87,"trend":null,"sizes":[{"pyeong":18.1,"area_m2":59.97,"n":6,"floor":5,"sale":0.65,"jeonse":0.65,"wDep":0.1,"wMon":35},{"pyeong":27.4,"area_m2":90.44,"n":1,"floor":6,"sale":1.17}]},{"name":"현대","gu":"마산합포구","dong":"해운동","built":1995,"lat":35.179959,"lng":128.565618,"dealCount":13,"brand":false,"maxFloor":20,"dcore":10.14,"trend":null,"sizes":[{"pyeong":18.1,"area_m2":59.95,"n":7,"floor":13,"sale":1.43,"jeonse":1.35,"wDep":0.5,"wMon":50},{"pyeong":25.7,"area_m2":84.96,"n":6,"floor":9,"sale":1.77,"jeonse":1.93}]},{"name":"센트럴","gu":"마산합포구","dong":"신포동1가","built":2001,"lat":35.199494,"lng":128.56992,"dealCount":47,"brand":false,"maxFloor":20,"dcore":8.15,"trend":4.3,"sizes":[{"pyeong":15.1,"area_m2":49.85,"n":21,"floor":7,"sale":1.3,"jeonse":1.3,"wDep":0.5,"wMon":55},{"pyeong":18.1,"area_m2":59.89,"n":20,"floor":8,"sale":1.85,"jeonse":1.7,"wDep":0.1,"wMon":60},{"pyeong":25.7,"area_m2":84.84,"n":6,"floor":14,"sale":2.55,"jeonse":2.59}]},{"name":"해운한백","gu":"마산합포구","dong":"해운동","built":2001,"lat":35.181538,"lng":128.562829,"dealCount":6,"brand":false,"maxFloor":18,"dcore":10.13,"trend":null,"sizes":[{"pyeong":9.7,"area_m2":32.1,"n":2,"floor":13,"wDep":0.15,"wMon":30},{"pyeong":14.1,"area_m2":46.52,"n":1,"floor":3,"wDep":0.1,"wMon":48},{"pyeong":16.4,"area_m2":54.06,"n":2,"floor":10,"sale":0.9,"wDep":0.1,"wMon":50},{"pyeong":25.7,"area_m2":84.93,"n":1,"floor":18,"sale":2.37}]},{"name":"성모아일린","gu":"마산합포구","dong":"중앙동3가","built":2012,"lat":35.199241,"lng":128.568201,"dealCount":4,"brand":false,"maxFloor":13,"dcore":8.27,"trend":null,"sizes":[{"pyeong":21.7,"area_m2":71.68,"n":1,"floor":3,"sale":2.1},{"pyeong":23.7,"area_m2":78.44,"n":3,"floor":13,"jeonse":1.7,"wDep":0.2,"wMon":45}]},{"name":"교방","gu":"마산합포구","dong":"교방동","built":1985,"lat":35.213554,"lng":128.564634,"dealCount":1,"brand":false,"maxFloor":1,"dcore":7.35,"trend":null,"sizes":[{"pyeong":12.2,"area_m2":40.41,"n":1,"floor":1,"wDep":0.1,"wMon":20}]},{"name":"우방","gu":"마산합포구","dong":"중앙동2가","built":1999,"lat":35.196126,"lng":128.567717,"dealCount":20,"brand":false,"maxFloor":19,"dcore":8.57,"trend":0.6,"sizes":[{"pyeong":18.2,"area_m2":60.0,"n":1,"floor":2,"sale":1.42},{"pyeong":21.2,"area_m2":69.99,"n":3,"floor":19,"sale":1.92,"jeonse":1.87},{"pyeong":25.7,"area_m2":84.96,"n":8,"floor":2,"sale":2.23,"jeonse":2.0,"wDep":0.5,"wMon":70},{"pyeong":35.0,"area_m2":115.8,"n":5,"floor":17,"sale":2.69,"wDep":0.5,"wMon":90},{"pyeong":42.3,"area_m2":139.93,"n":3,"floor":8,"sale":2.5,"wDep":0.5,"wMon":105}]},{"name":"전원파크맨션아파트","gu":"마산합포구","dong":"완월동","built":1992,"lat":35.198668,"lng":128.557371,"dealCount":9,"brand":false,"maxFloor":15,"dcore":8.96,"trend":null,"sizes":[{"pyeong":21.5,"area_m2":71.01,"n":4,"floor":4,"sale":0.65,"jeonse":0.6,"wDep":0.05,"wMon":40},{"pyeong":23.7,"area_m2":78.28,"n":4,"floor":5,"sale":0.9,"wDep":0.2,"wMon":35},{"pyeong":24.8,"area_m2":82.1,"n":1,"floor":15,"sale":1.3}]},{"name":"청안펠리스빌","gu":"마산합포구","dong":"자산동","built":2000,"lat":35.204311,"lng":128.560656,"dealCount":1,"brand":false,"maxFloor":9,"dcore":8.31,"trend":null,"sizes":[{"pyeong":53.9,"area_m2":178.2,"n":1,"floor":9,"wDep":0.1,"wMon":100}]},{"name":"자산","gu":"마산합포구","dong":"자산동","built":1991,"lat":35.20071,"lng":128.55799,"dealCount":9,"brand":false,"maxFloor":11,"dcore":8.76,"trend":-16.7,"sizes":[{"pyeong":14.6,"area_m2":48.22,"n":9,"floor":4,"sale":0.63,"wDep":0.05,"wMon":20}]},{"name":"평화궁전","gu":"마산합포구","dong":"자산동","built":1990,"lat":35.200731,"lng":128.559278,"dealCount":6,"brand":false,"maxFloor":10,"dcore":8.68,"trend":null,"sizes":[{"pyeong":25.6,"area_m2":84.47,"n":3,"floor":2,"sale":1.1,"jeonse":0.87},{"pyeong":36.7,"area_m2":121.26,"n":1,"floor":9,"sale":1.5},{"pyeong":45.6,"area_m2":150.88,"n":2,"floor":4,"sale":1.69}]},{"name":"대양파크맨션","gu":"마산합포구","dong":"교방동","built":1986,"lat":35.215534,"lng":128.560513,"dealCount":1,"brand":false,"maxFloor":3,"dcore":7.49,"trend":null,"sizes":[{"pyeong":21.8,"area_m2":72.0,"n":1,"floor":3,"wDep":0.1,"wMon":40}]},{"name":"두산1차","gu":"마산합포구","dong":"해운동","built":1991,"lat":35.178623,"lng":128.56337,"dealCount":21,"brand":false,"maxFloor":15,"dcore":10.38,"trend":-6.3,"sizes":[{"pyeong":20.9,"area_m2":69.0,"n":5,"floor":13,"sale":1.2,"jeonse":1.2},{"pyeong":25.5,"area_m2":84.39,"n":16,"floor":6,"sale":1.45,"jeonse":1.54,"wDep":1.0,"wMon":20}]},{"name":"배진파크","gu":"마산합포구","dong":"대외동","built":1992,"lat":35.185637,"lng":128.558676,"dealCount":1,"brand":false,"maxFloor":1,"dcore":9.98,"trend":null,"sizes":[{"pyeong":25.7,"area_m2":84.98,"n":1,"floor":1,"wDep":0.9,"wMon":10}]},{"name":"무학산벽산블루밍1단지","gu":"마산합포구","dong":"교방동","built":2009,"lat":35.2163,"lng":128.562122,"dealCount":14,"brand":false,"maxFloor":17,"dcore":7.33,"trend":8.7,"sizes":[{"pyeong":25.7,"area_m2":84.93,"n":14,"floor":10,"sale":2.7,"jeonse":2.45}]},{"name":"화인아트빌라1","gu":"마산합포구","dong":"월영동","built":1991,"lat":35.176091,"lng":128.554952,"dealCount":10,"brand":false,"maxFloor":15,"dcore":11.03,"trend":-15.3,"sizes":[{"pyeong":24.0,"area_m2":79.23,"n":3,"floor":5,"sale":0.9,"wDep":0.3,"wMon":45},{"pyeong":25.7,"area_m2":84.99,"n":2,"floor":6,"sale":1.1,"jeonse":1.19},{"pyeong":37.1,"area_m2":122.52,"n":3,"floor":5,"sale":1.48,"wDep":0.1,"wMon":60},{"pyeong":43.7,"area_m2":144.34,"n":2,"floor":14,"sale":1.71,"wDep":0.1,"wMon":60}]},{"name":"해오름","gu":"마산합포구","dong":"해운동","built":2005,"lat":35.178741,"lng":128.566466,"dealCount":16,"brand":false,"maxFloor":19,"dcore":10.22,"trend":-1.8,"sizes":[{"pyeong":25.7,"area_m2":84.97,"n":11,"floor":8,"sale":2.49,"jeonse":2.08},{"pyeong":33.6,"area_m2":111.08,"n":5,"floor":8,"sale":3.55,"jeonse":2.5}]},{"name":"일양맨션","gu":"마산합포구","dong":"월포동","built":1985,"lat":35.19056,"lng":128.565031,"dealCount":3,"brand":false,"maxFloor":3,"dcore":9.2,"trend":null,"sizes":[{"pyeong":17.9,"area_m2":59.04,"n":1,"floor":2,"wDep":0.7,"wMon":25},{"pyeong":18.9,"area_m2":62.61,"n":2,"floor":3,"jeonse":1.1}]},{"name":"가포금호어울림엔에이치에프","gu":"마산합포구","dong":"가포동","built":2021,"lat":35.155812,"lng":128.578144,"dealCount":86,"brand":false,"maxFloor":25,"dcore":12.04,"trend":null,"sizes":[{"pyeong":18.1,"area_m2":59.99,"n":65,"floor":11,"wDep":1.17,"wMon":12},{"pyeong":22.7,"area_m2":74.99,"n":21,"floor":12,"wDep":1.22,"wMon":19}]},{"name":"장안리츠빌","gu":"마산합포구","dong":"홍문동","built":2005,"lat":35.183605,"lng":128.559347,"dealCount":2,"brand":false,"maxFloor":7,"dcore":10.13,"trend":null,"sizes":[{"pyeong":25.7,"area_m2":84.85,"n":2,"floor":5,"sale":1.5,"wDep":0.5,"wMon":60}]},{"name":"명동파크","gu":"마산합포구","dong":"화영동","built":1989,"lat":35.184292,"lng":128.555906,"dealCount":3,"brand":false,"maxFloor":5,"dcore":10.25,"trend":null,"sizes":[{"pyeong":29.2,"area_m2":96.39,"n":3,"floor":2,"sale":0.77,"jeonse":0.73}]},{"name":"리치클하우스","gu":"마산합포구","dong":"창포동3가","built":2011,"lat":35.182274,"lng":128.560138,"dealCount":55,"brand":false,"maxFloor":9,"dcore":10.2,"trend":0.2,"sizes":[{"pyeong":6.1,"area_m2":20.15,"n":54,"floor":5,"sale":0.48,"wDep":0.05,"wMon":35},{"pyeong":7.6,"area_m2":25.25,"n":1,"floor":7,"wDep":0.05,"wMon":36}]},{"name":"해운동성","gu":"마산합포구","dong":"해운동","built":1996,"lat":35.183114,"lng":128.563894,"dealCount":21,"brand":false,"maxFloor":21,"dcore":9.93,"trend":5.9,"sizes":[{"pyeong":16.1,"area_m2":53.08,"n":3,"floor":15,"jeonse":1.45},{"pyeong":18.1,"area_m2":59.96,"n":15,"floor":14,"sale":1.79,"jeonse":1.26,"wDep":0.2,"wMon":70},{"pyeong":25.7,"area_m2":84.97,"n":3,"floor":16,"sale":1.8,"wDep":0.0,"wMon":80}]},{"name":"창원푸르지오더플래티넘1단지","gu":"마산합포구","dong":"교방동","built":2024,"lat":35.210572,"lng":128.569657,"dealCount":71,"brand":true,"maxFloor":24,"dcore":7.25,"trend":3.5,"sizes":[{"pyeong":22.4,"area_m2":74.17,"n":6,"floor":13,"sale":4.26,"jeonse":2.1,"wDep":2.4,"wMon":20},{"pyeong":25.4,"area_m2":84.03,"n":27,"floor":13,"sale":4.75,"jeonse":3.1,"wDep":2.5,"wMon":30},{"pyeong":25.5,"area_m2":84.31,"n":38,"floor":15,"sale":4.58,"jeonse":3.5,"wDep":2.3,"wMon":20}]},{"name":"동성","gu":"마산합포구","dong":"자산동","built":1985,"lat":35.200419,"lng":128.558644,"dealCount":2,"brand":false,"maxFloor":4,"dcore":8.74,"trend":null,"sizes":[{"pyeong":17.8,"area_m2":58.77,"n":2,"floor":3,"jeonse":0.42,"wDep":0.1,"wMon":30}]},{"name":"남명세비앙","gu":"마산합포구","dong":"중앙동2가","built":2005,"lat":35.194792,"lng":128.565912,"dealCount":11,"brand":false,"maxFloor":15,"dcore":8.78,"trend":null,"sizes":[{"pyeong":25.7,"area_m2":84.98,"n":11,"floor":6,"sale":2.1,"jeonse":1.85}]},{"name":"교수","gu":"마산합포구","dong":"중앙동2가","built":1980,"lat":35.195067,"lng":128.56855,"dealCount":3,"brand":false,"maxFloor":5,"dcore":8.62,"trend":null,"sizes":[{"pyeong":18.2,"area_m2":60.2,"n":1,"floor":3,"wDep":0.05,"wMon":55},{"pyeong":22.1,"area_m2":72.93,"n":2,"floor":3,"jeonse":0.83,"wDep":0.4,"wMon":40}]},{"name":"신흥그린빌라4","gu":"마산합포구","dong":"산호동","built":2002,"lat":35.217422,"lng":128.584244,"dealCount":1,"brand":false,"maxFloor":1,"dcore":5.81,"trend":null,"sizes":[{"pyeong":24.9,"area_m2":82.15,"n":1,"floor":1,"wDep":0.7,"wMon":15}]},{"name":"우신뉴타워","gu":"마산합포구","dong":"상남동","built":1996,"lat":35.21146,"lng":128.572622,"dealCount":4,"brand":false,"maxFloor":18,"dcore":6.99,"trend":null,"sizes":[{"pyeong":18.1,"area_m2":59.96,"n":2,"floor":6,"sale":1.1,"jeonse":0.83},{"pyeong":19.7,"area_m2":65.22,"n":2,"floor":13,"sale":1.1}]},{"name":"벽산블루밍","gu":"마산합포구","dong":"월포동","built":2007,"lat":35.192359,"lng":128.566307,"dealCount":36,"brand":false,"maxFloor":21,"dcore":8.98,"trend":11.2,"sizes":[{"pyeong":18.1,"area_m2":59.98,"n":5,"floor":16,"sale":2.28,"wDep":0.2,"wMon":60},{"pyeong":25.7,"area_m2":85.0,"n":29,"floor":11,"sale":3.63,"jeonse":2.3,"wDep":2.2,"wMon":15},{"pyeong":40.1,"area_m2":132.56,"n":2,"floor":12,"sale":5.2,"wDep":0.4,"wMon":125}]},{"name":"용마맨션","gu":"마산합포구","dong":"산호동","built":1978,"lat":35.217828,"lng":128.586032,"dealCount":9,"brand":false,"maxFloor":12,"dcore":5.67,"trend":null,"sizes":[{"pyeong":24.1,"area_m2":79.67,"n":8,"floor":3,"sale":1.45,"jeonse":1.14,"wDep":0.9,"wMon":20},{"pyeong":36.3,"area_m2":120.07,"n":1,"floor":4,"jeonse":1.4}]},{"name":"혜성미","gu":"마산합포구","dong":"중앙동3가","built":2006,"lat":35.198599,"lng":128.568329,"dealCount":6,"brand":false,"maxFloor":12,"dcore":8.32,"trend":null,"sizes":[{"pyeong":21.1,"area_m2":69.65,"n":6,"floor":6,"sale":2.02,"jeonse":1.54,"wDep":0.65,"wMon":30}]},{"name":"월영동성","gu":"마산합포구","dong":"월영동","built":1996,"lat":35.190222,"lng":128.556386,"dealCount":10,"brand":false,"maxFloor":15,"dcore":9.71,"trend":1.3,"sizes":[{"pyeong":18.1,"area_m2":59.96,"n":10,"floor":11,"sale":0.87,"wDep":0.2,"wMon":35}]},{"name":"삼성타운","gu":"마산합포구","dong":"산호동","built":1996,"lat":35.217239,"lng":128.58398,"dealCount":13,"brand":false,"maxFloor":18,"dcore":5.84,"trend":-7.6,"sizes":[{"pyeong":18.0,"area_m2":59.61,"n":6,"floor":10,"sale":1.75},{"pyeong":25.7,"area_m2":84.9,"n":4,"floor":11,"sale":2.1,"wDep":0.7,"wMon":40},{"pyeong":36.7,"area_m2":121.41,"n":3,"floor":2,"sale":2.78}]},{"name":"창포경민","gu":"마산합포구","dong":"창포동3가","built":1992,"lat":35.182131,"lng":128.561382,"dealCount":7,"brand":false,"maxFloor":11,"dcore":10.15,"trend":null,"sizes":[{"pyeong":17.4,"area_m2":57.47,"n":4,"floor":6,"sale":0.85,"wDep":0.15,"wMon":50},{"pyeong":25.5,"area_m2":84.15,"n":3,"floor":10,"sale":1.84,"jeonse":1.4}]},{"name":"한백가든빌라","gu":"마산합포구","dong":"대외동","built":1995,"lat":35.184754,"lng":128.558685,"dealCount":3,"brand":false,"maxFloor":5,"dcore":10.06,"trend":null,"sizes":[{"pyeong":44.7,"area_m2":147.75,"n":3,"floor":5,"sale":1.82,"wDep":0.3,"wMon":50}]},{"name":"라인아파트","gu":"마산합포구","dong":"지산리","built":2003,"lat":35.116683,"lng":128.464304,"dealCount":2,"brand":false,"maxFloor":10,"dcore":21.26,"trend":null,"sizes":[{"pyeong":17.9,"area_m2":59.31,"n":1,"floor":10,"sale":0.79},{"pyeong":25.7,"area_m2":84.81,"n":1,"floor":9,"wDep":0.05,"wMon":50}]},{"name":"성원이화맨션","gu":"마산합포구","dong":"진동리","built":1990,"lat":35.112733,"lng":128.485169,"dealCount":5,"brand":false,"maxFloor":5,"dcore":20.39,"trend":null,"sizes":[{"pyeong":21.0,"area_m2":69.57,"n":2,"floor":5,"sale":0.66,"jeonse":0.55},{"pyeong":23.1,"area_m2":76.45,"n":2,"floor":2,"sale":0.64,"wDep":0.15,"wMon":30},{"pyeong":25.7,"area_m2":84.83,"n":1,"floor":1,"sale":0.66}]},{"name":"진달래국민주택","gu":"마산합포구","dong":"월영동","built":1985,"lat":35.178988,"lng":128.557358,"dealCount":3,"brand":false,"maxFloor":4,"dcore":10.64,"trend":null,"sizes":[{"pyeong":19.3,"area_m2":63.72,"n":1,"floor":1,"sale":1.01},{"pyeong":19.5,"area_m2":64.53,"n":2,"floor":3,"sale":0.99,"jeonse":0.68}]},{"name":"신우희가로베스트","gu":"마산합포구","dong":"중앙동3가","built":2006,"lat":35.197556,"lng":128.567862,"dealCount":13,"brand":false,"maxFloor":17,"dcore":8.44,"trend":9.1,"sizes":[{"pyeong":18.1,"area_m2":59.93,"n":9,"floor":10,"sale":2.22,"jeonse":1.71,"wDep":0.3,"wMon":60},{"pyeong":25.7,"area_m2":84.96,"n":4,"floor":8,"sale":2.86,"jeonse":2.25}]},{"name":"환웅수빌리지","gu":"마산합포구","dong":"신포동1가","built":2015,"lat":35.199409,"lng":128.571701,"dealCount":4,"brand":false,"maxFloor":9,"dcore":8.06,"trend":null,"sizes":[{"pyeong":17.4,"area_m2":57.39,"n":4,"floor":7,"jeonse":1.3,"wDep":0.2,"wMon":65}]},{"name":"월영대동타운","gu":"마산합포구","dong":"월영동","built":1998,"lat":35.175209,"lng":128.558098,"dealCount":20,"brand":false,"maxFloor":20,"dcore":10.95,"trend":11.4,"sizes":[{"pyeong":17.9,"area_m2":59.17,"n":16,"floor":13,"sale":1.45,"jeonse":1.3,"wDep":0.3,"wMon":60},{"pyeong":25.6,"area_m2":84.78,"n":3,"floor":14,"sale":1.79,"wDep":1.4,"wMon":10},{"pyeong":42.8,"area_m2":141.48,"n":1,"floor":12,"jeonse":2.3}]},{"name":"엘렌시아주상복합","gu":"마산합포구","dong":"월남동3가","built":2016,"lat":35.18535,"lng":128.561108,"dealCount":6,"brand":false,"maxFloor":9,"dcore":9.88,"trend":null,"sizes":[{"pyeong":18.1,"area_m2":59.95,"n":4,"floor":8,"sale":2.11,"jeonse":1.65},{"pyeong":25.4,"area_m2":83.82,"n":2,"floor":6,"sale":2.55,"jeonse":2.2}]},{"name":"마산만I'PARK","gu":"마산합포구","dong":"신포동1가","built":2010,"lat":35.198042,"lng":128.573888,"dealCount":79,"brand":false,"maxFloor":36,"dcore":8.07,"trend":6.9,"sizes":[{"pyeong":25.7,"area_m2":84.96,"n":58,"floor":16,"sale":4.53,"jeonse":3.5,"wDep":0.3,"wMon":140},{"pyeong":37.7,"area_m2":124.73,"n":9,"floor":12,"sale":6.38,"wDep":2.0,"wMon":100},{"pyeong":46.6,"area_m2":154.04,"n":12,"floor":19,"sale":6.85,"jeonse":4.3,"wDep":0.5,"wMon":230}]},{"name":"중흥S클래스프라디움2차","gu":"마산합포구","dong":"현동","built":2015,"lat":35.145185,"lng":128.554784,"dealCount":24,"brand":false,"maxFloor":18,"dcore":13.97,"trend":-0.6,"sizes":[{"pyeong":25.7,"area_m2":85.0,"n":24,"floor":7,"sale":2.5,"jeonse":2.97,"wDep":0.2,"wMon":100}]},{"name":"한백푸른","gu":"마산합포구","dong":"자산동","built":1997,"lat":35.206634,"lng":128.566466,"dealCount":7,"brand":false,"maxFloor":19,"dcore":7.76,"trend":null,"sizes":[{"pyeong":18.1,"area_m2":59.67,"n":5,"floor":8,"sale":1.43,"jeonse":0.88,"wDep":0.1,"wMon":40},{"pyeong":25.7,"area_m2":84.93,"n":1,"floor":2,"jeonse":1.31},{"pyeong":41.7,"area_m2":137.7,"n":1,"floor":14,"sale":1.6}]},{"name":"평화골든타워","gu":"마산합포구","dong":"해운동","built":1993,"lat":35.177239,"lng":128.566395,"dealCount":19,"brand":false,"maxFloor":18,"dcore":10.36,"trend":1.1,"sizes":[{"pyeong":18.0,"area_m2":59.34,"n":11,"floor":8,"sale":1.48,"jeonse":1.4},{"pyeong":24.2,"area_m2":80.07,"n":6,"floor":11,"sale":1.19,"jeonse":1.35,"wDep":0.1,"wMon":60},{"pyeong":35.6,"area_m2":117.59,"n":2,"floor":15,"sale":2.66}]},{"name":"서광아침의빛","gu":"마산합포구","dong":"오동동","built":2008,"lat":35.207165,"lng":128.581849,"dealCount":11,"brand":false,"maxFloor":15,"dcore":6.83,"trend":2.5,"sizes":[{"pyeong":16.7,"area_m2":55.21,"n":1,"floor":14,"sale":1.54},{"pyeong":25.7,"area_m2":84.99,"n":10,"floor":7,"sale":2.2,"jeonse":1.6,"wDep":0.8,"wMon":40}]},{"name":"학성아트빌리지","gu":"마산합포구","dong":"자산동","built":2006,"lat":35.206591,"lng":128.562774,"dealCount":1,"brand":false,"maxFloor":3,"dcore":7.99,"trend":null,"sizes":[{"pyeong":25.7,"area_m2":84.89,"n":1,"floor":3,"jeonse":0.3}]},{"name":"팔도맨션","gu":"마산합포구","dong":"자산동","built":1995,"lat":35.206666,"lng":128.563649,"dealCount":5,"brand":false,"maxFloor":18,"dcore":7.93,"trend":null,"sizes":[{"pyeong":18.1,"area_m2":59.79,"n":1,"floor":18,"sale":1.21},{"pyeong":21.5,"area_m2":71.01,"n":3,"floor":8,"sale":1.1,"wDep":0.1,"wMon":50},{"pyeong":25.6,"area_m2":84.72,"n":1,"floor":6,"sale":0.85}]},{"name":"두월동상우the헤라우스","gu":"마산합포구","dong":"두월동2가","built":2016,"lat":35.18611,"lng":128.560571,"dealCount":10,"brand":false,"maxFloor":17,"dcore":9.84,"trend":-3.6,"sizes":[{"pyeong":20.8,"area_m2":68.86,"n":5,"floor":10,"sale":2.2},{"pyeong":25.7,"area_m2":84.99,"n":5,"floor":9,"sale":2.55,"wDep":0.2,"wMon":100}]},{"name":"창원현동하늘채","gu":"마산합포구","dong":"현동","built":2018,"lat":35.144361,"lng":128.557699,"dealCount":31,"brand":false,"maxFloor":25,"dcore":13.94,"trend":0.2,"sizes":[{"pyeong":18.1,"area_m2":59.98,"n":31,"floor":11,"sale":2.1,"jeonse":1.9,"wDep":0.3,"wMon":60}]},{"name":"서광2","gu":"마산합포구","dong":"완월동","built":1997,"lat":35.197658,"lng":128.55673,"dealCount":5,"brand":false,"maxFloor":20,"dcore":9.08,"trend":null,"sizes":[{"pyeong":18.1,"area_m2":59.84,"n":1,"floor":20,"sale":1.13},{"pyeong":25.6,"area_m2":84.75,"n":4,"floor":8,"sale":1.38,"wDep":0.3,"wMon":35}]},{"name":"상강","gu":"마산합포구","dong":"산호동","built":1991,"lat":35.21636,"lng":128.581353,"dealCount":1,"brand":false,"maxFloor":4,"dcore":6.07,"trend":null,"sizes":[{"pyeong":24.3,"area_m2":80.36,"n":1,"floor":4,"wDep":0.06,"wMon":30}]},{"name":"삼우","gu":"마산합포구","dong":"중앙동3가","built":1981,"lat":35.196641,"lng":128.568728,"dealCount":11,"brand":false,"maxFloor":5,"dcore":8.47,"trend":null,"sizes":[{"pyeong":11.1,"area_m2":36.69,"n":11,"floor":3,"sale":0.7,"jeonse":0.52,"wDep":0.05,"wMon":33}]},{"name":"연화","gu":"마산합포구","dong":"중앙동3가","built":1980,"lat":35.20066,"lng":128.567895,"dealCount":2,"brand":false,"maxFloor":4,"dcore":8.17,"trend":null,"sizes":[{"pyeong":11.3,"area_m2":37.22,"n":2,"floor":3,"sale":0.35,"wDep":0.02,"wMon":35}]},{"name":"배진","gu":"마산합포구","dong":"교방동","built":1987,"lat":35.21332,"lng":128.563874,"dealCount":4,"brand":false,"maxFloor":4,"dcore":7.42,"trend":null,"sizes":[{"pyeong":13.6,"area_m2":45.02,"n":1,"floor":4,"wDep":0.5,"wMon":10},{"pyeong":16.3,"area_m2":53.96,"n":2,"floor":3,"sale":0.83,"jeonse":0.6},{"pyeong":17.1,"area_m2":56.57,"n":1,"floor":4,"sale":0.9}]},{"name":"대동한마음","gu":"마산합포구","dong":"완월동","built":1992,"lat":35.194998,"lng":128.563537,"dealCount":2,"brand":false,"maxFloor":6,"dcore":8.9,"trend":null,"sizes":[{"pyeong":25.7,"area_m2":84.97,"n":2,"floor":3,"sale":1.44,"jeonse":1.04}]},{"name":"신월경남","gu":"마산합포구","dong":"완월동","built":1992,"lat":35.194126,"lng":128.561126,"dealCount":5,"brand":false,"maxFloor":9,"dcore":9.11,"trend":null,"sizes":[{"pyeong":18.0,"area_m2":59.48,"n":2,"floor":5,"sale":0.98,"wDep":0.74,"wMon":15},{"pyeong":25.0,"area_m2":82.76,"n":1,"floor":6,"sale":1.47},{"pyeong":59.8,"area_m2":197.66,"n":2,"floor":7,"sale":1.8}]},{"name":"새롬미리내아파트","gu":"마산합포구","dong":"신포동1가","built":2003,"lat":35.199817,"lng":128.571302,"dealCount":11,"brand":false,"maxFloor":19,"dcore":8.05,"trend":7.3,"sizes":[{"pyeong":25.7,"area_m2":84.95,"n":4,"floor":9,"sale":2.2,"jeonse":1.7},{"pyeong":36.1,"area_m2":119.21,"n":7,"floor":19,"sale":3.03,"jeonse":2.31,"wDep":0.3,"wMon":80}]},{"name":"헤븐하임","gu":"마산합포구","dong":"월남동3가","built":2014,"lat":35.184923,"lng":128.560758,"dealCount":2,"brand":false,"maxFloor":8,"dcore":9.93,"trend":null,"sizes":[{"pyeong":16.7,"area_m2":55.17,"n":1,"floor":8,"sale":1.49},{"pyeong":17.8,"area_m2":58.95,"n":1,"floor":5,"jeonse":1.3}]},{"name":"대한맨션","gu":"마산합포구","dong":"산호동","built":1985,"lat":35.219991,"lng":128.585772,"dealCount":7,"brand":false,"maxFloor":13,"dcore":5.5,"trend":null,"sizes":[{"pyeong":20.5,"area_m2":67.61,"n":3,"floor":6,"sale":1.15,"jeonse":0.99,"wDep":0.25,"wMon":40},{"pyeong":25.7,"area_m2":84.89,"n":4,"floor":9,"sale":1.45,"wDep":0.9,"wMon":20}]},{"name":"동성가든","gu":"마산합포구","dong":"자산동","built":1986,"lat":35.201049,"lng":128.558413,"dealCount":1,"brand":false,"maxFloor":4,"dcore":8.7,"trend":null,"sizes":[{"pyeong":22.7,"area_m2":75.15,"n":1,"floor":4,"jeonse":0.65}]},{"name":"신우희가로밀리온","gu":"마산합포구","dong":"신포동1가","built":2004,"lat":35.198239,"lng":128.571222,"dealCount":3,"brand":false,"maxFloor":20,"dcore":8.19,"trend":null,"sizes":[{"pyeong":25.7,"area_m2":84.91,"n":3,"floor":12,"sale":2.01,"wDep":1.8,"wMon":5}]},{"name":"정우빌라","gu":"마산합포구","dong":"상남동","built":2014,"lat":35.21426,"lng":128.571151,"dealCount":2,"brand":false,"maxFloor":4,"dcore":6.87,"trend":null,"sizes":[{"pyeong":18.0,"area_m2":59.6,"n":2,"floor":3,"sale":1.45,"wDep":0.35,"wMon":50}]},{"name":"월영라이프","gu":"마산합포구","dong":"월영동","built":1998,"lat":35.177032,"lng":128.554634,"dealCount":9,"brand":false,"maxFloor":15,"dcore":10.96,"trend":null,"sizes":[{"pyeong":22.2,"area_m2":73.26,"n":1,"floor":5,"jeonse":0.7},{"pyeong":24.0,"area_m2":79.41,"n":1,"floor":2,"jeonse":0.79},{"pyeong":25.6,"area_m2":84.58,"n":3,"floor":2,"sale":0.89,"jeonse":0.73,"wDep":0.2,"wMon":40},{"pyeong":33.5,"area_m2":110.66,"n":4,"floor":15,"sale":1.32}]},{"name":"국제파크","gu":"마산합포구","dong":"완월동","built":1993,"lat":35.198041,"lng":128.557851,"dealCount":3,"brand":false,"maxFloor":5,"dcore":8.98,"trend":null,"sizes":[{"pyeong":17.4,"area_m2":57.42,"n":2,"floor":4,"wDep":0.1,"wMon":35},{"pyeong":25.3,"area_m2":83.57,"n":1,"floor":4,"sale":1.16}]},{"name":"청구제네스","gu":"마산합포구","dong":"완월동","built":2003,"lat":35.196975,"lng":128.556643,"dealCount":11,"brand":false,"maxFloor":20,"dcore":9.14,"trend":14.9,"sizes":[{"pyeong":25.5,"area_m2":84.35,"n":8,"floor":8,"sale":1.75,"jeonse":1.56},{"pyeong":36.0,"area_m2":119.08,"n":2,"floor":13,"sale":2.15},{"pyeong":40.8,"area_m2":134.99,"n":1,"floor":18,"sale":2.3}]},{"name":"산호국민주택","gu":"마산합포구","dong":"산호동","built":1987,"lat":35.221489,"lng":128.584515,"dealCount":1,"brand":false,"maxFloor":5,"dcore":5.46,"trend":null,"sizes":[{"pyeong":12.1,"area_m2":39.96,"n":1,"floor":5,"wDep":0.1,"wMon":25}]},{"name":"한백힐사이드빌라","gu":"마산합포구","dong":"자산동","built":1995,"lat":35.20598,"lng":128.564295,"dealCount":1,"brand":false,"maxFloor":8,"dcore":7.95,"trend":null,"sizes":[{"pyeong":47.3,"area_m2":156.21,"n":1,"floor":8,"wDep":0.3,"wMon":60}]},{"name":"동성아파트","gu":"마산합포구","dong":"창포동1가","built":1992,"lat":35.185293,"lng":128.561875,"dealCount":14,"brand":false,"maxFloor":14,"dcore":9.84,"trend":7.3,"sizes":[{"pyeong":17.7,"area_m2":58.59,"n":7,"floor":12,"sale":1.4,"jeonse":1.32},{"pyeong":25.5,"area_m2":84.3,"n":5,"floor":14,"sale":2.09},{"pyeong":31.7,"area_m2":104.84,"n":1,"floor":9,"sale":2.3},{"pyeong":41.8,"area_m2":138.26,"n":1,"floor":8,"sale":2.5}]},{"name":"뜨란채빌","gu":"마산합포구","dong":"추산동","built":2017,"lat":35.205006,"lng":128.571064,"dealCount":4,"brand":false,"maxFloor":8,"dcore":7.62,"trend":null,"sizes":[{"pyeong":17.8,"area_m2":58.94,"n":4,"floor":5,"sale":1.0,"wDep":0.1,"wMon":40}]},{"name":"대권한빛","gu":"마산합포구","dong":"진동리","built":2001,"lat":35.117152,"lng":128.488801,"dealCount":1,"brand":false,"maxFloor":6,"dcore":19.8,"trend":null,"sizes":[{"pyeong":24.3,"area_m2":80.4,"n":1,"floor":6,"wDep":0.05,"wMon":28}]},{"name":"해바라기","gu":"마산합포구","dong":"월남동1가","built":1983,"lat":35.186805,"lng":128.563022,"dealCount":8,"brand":false,"maxFloor":5,"dcore":9.65,"trend":null,"sizes":[{"pyeong":18.0,"area_m2":59.34,"n":6,"floor":3,"sale":1.0,"jeonse":0.7,"wDep":0.2,"wMon":33},{"pyeong":20.5,"area_m2":67.62,"n":2,"floor":4,"sale":0.99,"wDep":0.1,"wMon":35}]},{"name":"신우빌라","gu":"마산합포구","dong":"교방동","built":1992,"lat":35.212532,"lng":128.563904,"dealCount":1,"brand":false,"maxFloor":4,"dcore":7.47,"trend":null,"sizes":[{"pyeong":24.9,"area_m2":82.22,"n":1,"floor":4,"jeonse":0.8}]},{"name":"신포경남","gu":"마산합포구","dong":"신포동2가","built":1988,"lat":35.200991,"lng":128.570261,"dealCount":3,"brand":false,"maxFloor":14,"dcore":8.0,"trend":null,"sizes":[{"pyeong":25.6,"area_m2":84.56,"n":3,"floor":14,"sale":1.32,"jeonse":1.2,"wDep":1.0,"wMon":13}]},{"name":"해창아트빌","gu":"마산합포구","dong":"월포동","built":2003,"lat":35.189978,"lng":128.56497,"dealCount":2,"brand":false,"maxFloor":4,"dcore":9.26,"trend":null,"sizes":[{"pyeong":22.2,"area_m2":73.43,"n":1,"floor":4,"wDep":0.2,"wMon":60},{"pyeong":24.8,"area_m2":82.11,"n":1,"floor":2,"jeonse":1.14}]},{"name":"한라해말금","gu":"마산합포구","dong":"월영동","built":2006,"lat":35.177262,"lng":128.554235,"dealCount":3,"brand":false,"maxFloor":8,"dcore":10.96,"trend":null,"sizes":[{"pyeong":25.6,"area_m2":84.74,"n":3,"floor":8,"sale":1.5,"jeonse":1.32}]},{"name":"무학","gu":"마산합포구","dong":"산호동","built":1979,"lat":35.207669,"lng":128.584126,"dealCount":7,"brand":false,"maxFloor":9,"dcore":6.67,"trend":null,"sizes":[{"pyeong":22.6,"area_m2":74.84,"n":1,"floor":7,"sale":1.35},{"pyeong":24.6,"area_m2":81.16,"n":6,"floor":5,"sale":1.19,"wDep":0.15,"wMon":50}]},{"name":"대창","gu":"마산합포구","dong":"대창동","built":2004,"lat":35.186148,"lng":128.553741,"dealCount":1,"brand":false,"maxFloor":2,"dcore":10.21,"trend":null,"sizes":[{"pyeong":16.5,"area_m2":54.42,"n":1,"floor":2,"wDep":0.1,"wMon":33}]},{"name":"리코그린맨션","gu":"마산합포구","dong":"자산동","built":1991,"lat":35.206395,"lng":128.562874,"dealCount":3,"brand":false,"maxFloor":5,"dcore":8.0,"trend":null,"sizes":[{"pyeong":20.5,"area_m2":67.86,"n":1,"floor":5,"sale":0.44},{"pyeong":21.5,"area_m2":71.19,"n":2,"floor":1,"sale":0.62,"wDep":0.17,"wMon":30}]},{"name":"반월동르메이에르","gu":"마산합포구","dong":"대성동1가","built":2004,"lat":35.192574,"lng":128.561361,"dealCount":1,"brand":false,"maxFloor":5,"dcore":9.23,"trend":null,"sizes":[{"pyeong":24.4,"area_m2":80.79,"n":1,"floor":5,"jeonse":1.1}]},{"name":"우경씨사이드빌","gu":"마산합포구","dong":"신포동2가","built":2004,"lat":35.202577,"lng":128.573393,"dealCount":2,"brand":false,"maxFloor":13,"dcore":7.69,"trend":null,"sizes":[{"pyeong":25.3,"area_m2":83.56,"n":2,"floor":9,"sale":1.6,"wDep":0.2,"wMon":70}]},{"name":"창동스카이아파트","gu":"마산합포구","dong":"중성동","built":2013,"lat":35.208262,"lng":128.573677,"dealCount":2,"brand":false,"maxFloor":6,"dcore":7.19,"trend":null,"sizes":[{"pyeong":16.1,"area_m2":53.14,"n":2,"floor":5,"sale":1.15,"jeonse":1.43}]},{"name":"건우맨션","gu":"마산합포구","dong":"사동리","built":1996,"lat":35.110403,"lng":128.484148,"dealCount":9,"brand":false,"maxFloor":19,"dcore":20.65,"trend":-9.9,"sizes":[{"pyeong":18.1,"area_m2":59.95,"n":8,"floor":9,"sale":1.08,"wDep":0.2,"wMon":40},{"pyeong":25.7,"area_m2":84.99,"n":1,"floor":19,"sale":1.28}]},{"name":"현대가동","gu":"마산합포구","dong":"중앙동2가","built":1985,"lat":35.193977,"lng":128.565888,"dealCount":3,"brand":false,"maxFloor":10,"dcore":8.86,"trend":null,"sizes":[{"pyeong":25.6,"area_m2":84.53,"n":3,"floor":10,"sale":1.53,"wDep":0.8,"wMon":20}]},{"name":"수영","gu":"마산합포구","dong":"교방동","built":1986,"lat":35.212923,"lng":128.562757,"dealCount":3,"brand":false,"maxFloor":3,"dcore":7.52,"trend":null,"sizes":[{"pyeong":15.4,"area_m2":50.94,"n":1,"floor":3,"sale":0.5},{"pyeong":16.6,"area_m2":54.9,"n":2,"floor":3,"jeonse":0.6}]},{"name":"진웅네스빌","gu":"마산합포구","dong":"산호동","built":2003,"lat":35.209777,"lng":128.582489,"dealCount":5,"brand":false,"maxFloor":12,"dcore":6.57,"trend":null,"sizes":[{"pyeong":24.1,"area_m2":79.53,"n":5,"floor":7,"sale":1.57,"wDep":0.05,"wMon":50}]},{"name":"수성퀸즈빌","gu":"마산합포구","dong":"수성동","built":2014,"lat":35.204606,"lng":128.573978,"dealCount":1,"brand":false,"maxFloor":4,"dcore":7.48,"trend":null,"sizes":[{"pyeong":18.0,"area_m2":59.54,"n":1,"floor":4,"wDep":0.7,"wMon":35}]},{"name":"대성","gu":"마산합포구","dong":"상남동","built":1980,"lat":35.213892,"lng":128.571992,"dealCount":3,"brand":false,"maxFloor":5,"dcore":6.84,"trend":null,"sizes":[{"pyeong":15.6,"area_m2":51.7,"n":1,"floor":5,"sale":0.55},{"pyeong":18.1,"area_m2":59.9,"n":1,"floor":2,"sale":0.47},{"pyeong":20.3,"area_m2":66.98,"n":1,"floor":2,"jeonse":0.52}]},{"name":"혜창한마음비치","gu":"마산합포구","dong":"요장리","built":1994,"lat":35.111676,"lng":128.491175,"dealCount":12,"brand":false,"maxFloor":22,"dcore":20.15,"trend":22.0,"sizes":[{"pyeong":17.3,"area_m2":57.06,"n":7,"floor":6,"sale":0.71,"wDep":0.05,"wMon":30},{"pyeong":24.9,"area_m2":82.17,"n":5,"floor":14,"sale":1.18}]},{"name":"일신","gu":"마산회원구","dong":"석전동","built":1985,"lat":35.23785,"lng":128.579234,"dealCount":2,"brand":false,"maxFloor":5,"dcore":4.75,"trend":null,"sizes":[{"pyeong":15.6,"area_m2":51.57,"n":2,"floor":3,"sale":0.71,"jeonse":0.44}]},{"name":"중리근로복지","gu":"마산회원구","dong":"상곡리","built":1993,"lat":35.243797,"lng":128.499489,"dealCount":59,"brand":false,"maxFloor":15,"dcore":11.44,"trend":6.3,"sizes":[{"pyeong":12.7,"area_m2":41.85,"n":43,"floor":8,"sale":0.47,"jeonse":0.4,"wDep":0.02,"wMon":30},{"pyeong":15.1,"area_m2":49.77,"n":16,"floor":9,"sale":0.67,"jeonse":0.62,"wDep":0.03,"wMon":35}]},{"name":"현대","gu":"마산회원구","dong":"삼계리","built":1998,"lat":35.233955,"lng":128.502358,"dealCount":20,"brand":false,"maxFloor":15,"dcore":11.38,"trend":-5.0,"sizes":[{"pyeong":23.4,"area_m2":77.24,"n":7,"floor":9,"sale":2.46,"jeonse":1.98,"wDep":0.15,"wMon":66},{"pyeong":25.5,"area_m2":84.36,"n":4,"floor":4,"sale":2.24,"wDep":1.0,"wMon":40},{"pyeong":30.1,"area_m2":99.43,"n":6,"floor":11,"sale":2.39,"jeonse":2.2,"wDep":0.4,"wMon":70},{"pyeong":34.6,"area_m2":114.24,"n":3,"floor":10,"sale":2.95}]},{"name":"창원롯데캐슬센텀골드","gu":"마산회원구","dong":"양덕동","built":2023,"lat":35.22361,"lng":128.592448,"dealCount":206,"brand":true,"maxFloor":39,"dcore":4.81,"trend":2.6,"sizes":[{"pyeong":18.1,"area_m2":59.95,"n":50,"floor":22,"sale":4.5,"jeonse":3.2,"wDep":1.5,"wMon":70},{"pyeong":22.7,"area_m2":74.95,"n":23,"floor":20,"sale":5.94,"jeonse":3.15,"wDep":0.7,"wMon":120},{"pyeong":25.7,"area_m2":84.98,"n":124,"floor":23,"sale":5.75,"jeonse":3.67,"wDep":0.1,"wMon":120},{"pyeong":30.2,"area_m2":99.7,"n":9,"floor":12,"jeonse":4.3,"wDep":3.8,"wMon":30}]},{"name":"메트로시티2단지","gu":"마산회원구","dong":"양덕동","built":2015,"lat":35.224555,"lng":128.585365,"dealCount":255,"brand":false,"maxFloor":53,"dcore":5.16,"trend":2.4,"sizes":[{"pyeong":22.7,"area_m2":74.94,"n":51,"floor":22,"sale":5.28,"jeonse":4.2,"wDep":3.0,"wMon":50},{"pyeong":25.7,"area_m2":84.94,"n":132,"floor":25,"sale":6.04,"jeonse":3.9,"wDep":4.5,"wMon":10},{"pyeong":30.6,"area_m2":101.14,"n":58,"floor":24,"sale":7.0,"jeonse":5.0,"wDep":1.0,"wMon":180},{"pyeong":34.5,"area_m2":114.06,"n":14,"floor":24,"sale":8.31,"jeonse":6.0,"wDep":4.5,"wMon":20}]},{"name":"경민인터빌","gu":"마산회원구","dong":"양덕동","built":2000,"lat":35.231903,"lng":128.583819,"dealCount":4,"brand":false,"maxFloor":16,"dcore":4.74,"trend":null,"sizes":[{"pyeong":18.0,"area_m2":59.4,"n":1,"floor":11,"wDep":0.5,"wMon":35},{"pyeong":22.9,"area_m2":75.75,"n":1,"floor":16,"wDep":0.1,"wMon":50},{"pyeong":25.4,"area_m2":84.06,"n":2,"floor":10,"jeonse":1.5,"wDep":0.2,"wMon":70}]},{"name":"현대성우","gu":"마산회원구","dong":"호계리","built":2004,"lat":35.255041,"lng":128.519178,"dealCount":13,"brand":false,"maxFloor":20,"dcore":9.6,"trend":-4.6,"sizes":[{"pyeong":19.9,"area_m2":65.88,"n":5,"floor":20,"sale":1.33,"jeonse":1.43},{"pyeong":25.7,"area_m2":85.0,"n":8,"floor":14,"sale":1.6}]},{"name":"대동다:숲","gu":"마산회원구","dong":"삼계리","built":1999,"lat":35.229766,"lng":128.50368,"dealCount":15,"brand":false,"maxFloor":14,"dcore":11.38,"trend":-2.8,"sizes":[{"pyeong":23.3,"area_m2":76.99,"n":5,"floor":7,"sale":1.79,"jeonse":1.6},{"pyeong":25.7,"area_m2":84.96,"n":10,"floor":8,"sale":2.13,"jeonse":1.68,"wDep":1.6,"wMon":10}]},{"name":"숲속마을주공그린빌4단지","gu":"마산회원구","dong":"삼계리","built":2002,"lat":35.230996,"lng":128.496092,"dealCount":17,"brand":false,"maxFloor":15,"dcore":12.0,"trend":4.1,"sizes":[{"pyeong":14.8,"area_m2":48.92,"n":2,"floor":1,"wDep":0.1,"wMon":55},{"pyeong":17.9,"area_m2":59.26,"n":8,"floor":5,"sale":1.44,"wDep":0.2,"wMon":50},{"pyeong":22.9,"area_m2":75.85,"n":1,"floor":5,"wDep":0.1,"wMon":60},